$GPRMC,101333.00,A,3724.21211,N,12706.29938,E,23.279,341.65,080419,,,A*59
$GPVTG,341.65,T,,M,23.279,N,43.113,K,A*31
$GPGGA,101333.00,3724.21211,N,12706.29938,E,1,04,3.69,54.6,M,18.8,M,,*69
$GPGSA,A,3,01,17,28,22,,,,,,,,,5.03,3.69,3.41*03
$GPGSV,3,1,11,01,62,037,36,03,,,33,06,03,234,,07,06,195,08*48
$GPGSV,3,2,11,11,50,052,,17,35,299,43,22,48,093,24,28,68,304,38*77
$GPGSV,3,3,11,30,,,34,42,45,159,30,50,43,152,33*70
$GPGLL,3724.21211,N,12706.29938,E,101333.00,A,A*62
$GPRMC,101334.00,A,3724.21720,N,12706.29692,E,23.083,340.37,080419,,,A*57
$GPVTG,340.37,T,,M,23.083,N,42.749,K,A*38
$GPGGA,101334.00,3724.21720,N,12706.29692,E,1,04,3.69,51.6,M,18.8,M,,*63
$GPGSA,A,3,01,17,28,22,,,,,,,,,5.03,3.69,3.41*03
$GPGSV,3,1,11,01,62,037,38,03,,,34,06,03,234,,07,06,195,08*41
$GPGSV,3,2,11,11,50,052,,17,35,299,43,22,48,093,20,28,68,304,38*73
$GPGSV,3,3,11,30,,,34,42,45,159,31,50,43,152,33*71
$GPGLL,3724.21720,N,12706.29692,E,101334.00,A,A*6D
$GPRMC,101335.00,A,3724.22252,N,12706.29420,E,23.259,338.56,080419,,,A*53
$GPVTG,338.56,T,,M,23.259,N,43.076,K,A*3F
$GPGGA,101335.00,3724.22252,N,12706.29420,E,1,04,3.69,48.4,M,18.8,M,,*60
$GPGSA,A,3,01,17,28,22,,,,,,,,,5.03,3.69,3.42*00
$GPGSV,3,1,11,01,62,037,40,03,,,31,06,03,234,,07,06,195,*43
$GPGSV,3,2,11,11,50,052,,17,35,299,41,22,48,093,16,28,68,304,37*7B
$GPGSV,3,3,11,30,,,38,42,45,159,31,50,43,152,32*7C
$GPGLL,3724.22252,N,12706.29420,E,101335.00,A,A*64
$GPRMC,101336.00,A,3724.22807,N,12706.29163,E,22.999,336.67,080419,,,A*52
$GPVTG,336.67,T,,M,22.999,N,42.594,K,A*3D
$GPGGA,101336.00,3724.22807,N,12706.29163,E,1,04,3.69,45.5,M,18.8,M,,*67
$GPGSA,A,3,01,17,28,22,,,,,,,,,5.03,3.69,3.42*00
$GPGSV,3,1,11,01,62,037,40,03,,,32,06,03,234,,07,06,195,26*44
$GPGSV,3,2,11,11,50,052,,17,35,299,42,22,48,093,17,28,68,304,37*79
$GPGSV,3,3,11,30,,,31,42,45,159,31,50,43,152,33*74
$GPGLL,3724.22807,N,12706.29163,E,101336.00,A,A*6F
$GPRMC,101337.00,A,3724.23392,N,12706.28848,E,24.081,335.34,080419,,,A*57
$GPVTG,335.34,T,,M,24.081,N,44.597,K,A*3B
$GPGGA,101337.00,3724.23392,N,12706.28848,E,1,04,3.69,44.1,M,18.8,M,,*64
$GPGSA,A,3,01,17,28,22,,,,,,,,,5.03,3.69,3.42*00
$GPGSV,3,1,11,01,62,037,42,03,,,37,06,03,234,,07,06,195,24*41
$GPGSV,3,2,11,11,50,052,41,17,35,299,43,22,48,093,36,28,68,304,38*71
$GPGSV,3,3,11,30,,,30,42,45,159,31,50,43,152,33*75
$GPGLL,3724.23392,N,12706.28848,E,101337.00,A,A*69
$GPRMC,101338.00,A,3724.23998,N,12706.28492,E,24.285,333.69,080419,,,A*5B
$GPVTG,333.69,T,,M,24.285,N,44.976,K,A*30
$GPGGA,101338.00,3724.23998,N,12706.28492,E,1,04,3.69,43.8,M,18.8,M,,*6E
$GPGSA,A,3,01,17,28,22,,,,,,,,,5.03,3.69,3.42*00
$GPGSV,3,1,12,01,62,037,33,03,,,39,06,03,234,,07,06,195,22*4C
$GPGSV,3,2,12,11,50,052,,17,35,299,43,19,,,29,22,48,093,26*4D
$GPGSV,3,3,12,28,68,304,37,30,,,30,42,45,159,31,50,43,152,32*40
$GPGLL,3724.23998,N,12706.28492,E,101338.00,A,A*6D
$GPRMC,101339.00,A,3724.24647,N,12706.28090,E,25.304,331.61,080419,,,A*55
$GPVTG,331.61,T,,M,25.304,N,46.863,K,A*34
$GPGGA,101339.00,3724.24647,N,12706.28090,E,1,04,3.69,43.9,M,18.8,M,,*62
$GPGSA,A,3,01,17,28,22,,,,,,,,,5.03,3.69,3.42*00
$GPGSV,3,1,12,01,62,037,39,03,,,41,06,03,234,,07,06,195,19*41
$GPGSV,3,2,12,11,50,052,23,17,35,299,39,19,,,33,22,48,093,30*4D
$GPGSV,3,3,12,28,68,304,36,30,22,225,28,42,45,159,31,50,43,152,33*7C
$GPGLL,3724.24647,N,12706.28090,E,101339.00,A,A*60
$GPRMC,101340.00,A,3724.25293,N,12706.27639,E,24.673,328.22,080419,,,A*56
$GPVTG,328.22,T,,M,24.673,N,45.695,K,A*3B
$GPGGA,101340.00,3724.25293,N,12706.27639,E,1,04,3.68,43.8,M,18.8,M,,*6A
$GPGSA,A,3,01,17,28,22,,,,,,,,,5.03,3.68,3.42*01
$GPGSV,3,1,12,01,62,037,34,03,,,41,06,03,234,,07,06,195,17*42
$GPGSV,3,2,12,11,50,052,31,17,35,299,36,19,,,36,22,48,093,24*41
$GPGSV,3,3,12,28,68,304,36,30,22,225,28,42,45,159,32,50,43,152,34*78
$GPGLL,3724.25293,N,12706.27639,E,101340.00,A,A*68
$GPRMC,101341.00,A,3724.25889,N,12706.27188,E,24.902,328.04,080419,,,A*56
$GPVTG,328.04,T,,M,24.902,N,46.119,K,A*36
$GPGGA,101341.00,3724.25889,N,12706.27188,E,1,04,3.68,42.8,M,18.8,M,,*66
$GPGSA,A,3,01,17,28,22,,,,,,,,,5.03,3.68,3.42*01
$GPGSV,3,1,12,01,62,037,20,03,,,39,06,03,234,,07,06,195,16*49
$GPGSV,3,2,12,11,50,052,24,17,35,299,34,19,,,36,22,48,093,26*45
$GPGSV,3,3,12,28,68,304,36,30,22,225,33,42,45,159,32,50,43,152,34*72
$GPGLL,3724.25889,N,12706.27188,E,101341.00,A,A*65
$GPRMC,101342.00,A,3724.26525,N,12706.26697,E,25.438,327.06,080419,,,A*5D
$GPVTG,327.06,T,,M,25.438,N,47.112,K,A*34
$GPGGA,101342.00,3724.26525,N,12706.26697,E,1,04,3.68,43.0,M,18.8,M,,*6C
$GPGSA,A,3,01,17,28,22,,,,,,,,,5.03,3.68,3.42*01
$GPGSV,3,1,12,01,62,037,19,03,,,39,06,03,234,,07,06,195,15*40
$GPGSV,3,2,12,11,50,052,21,17,35,299,30,19,,,39,22,48,093,25*48
$GPGSV,3,3,12,28,68,304,36,30,22,225,31,42,45,159,33,50,43,152,34*71
$GPGLL,3724.26525,N,12706.26697,E,101342.00,A,A*66
$GPRMC,101343.00,A,3724.27109,N,12706.26180,E,24.974,325.38,080419,,,A*5D
$GPVTG,325.38,T,,M,24.974,N,46.251,K,A*3A
$GPGGA,101343.00,3724.27109,N,12706.26180,E,1,04,3.68,43.2,M,18.8,M,,*65
$GPGSA,A,3,01,17,28,22,,,,,,,,,5.03,3.68,3.42*01
$GPGSV,3,1,12,01,62,037,18,03,,,39,06,03,234,,07,06,195,15*41
$GPGSV,3,2,12,11,50,052,16,17,35,299,30,19,,,34,22,48,093,20*44
$GPGSV,3,3,12,28,68,304,35,30,22,225,36,42,45,159,33,50,43,152,33*72
$GPGLL,3724.27109,N,12706.26180,E,101343.00,A,A*6D
$GPRMC,101344.00,A,3724.27738,N,12706.25664,E,25.286,325.15,080419,,,A*58
$GPVTG,325.15,T,,M,25.286,N,46.830,K,A*3F
$GPGGA,101344.00,3724.27738,N,12706.25664,E,1,04,3.68,44.2,M,18.8,M,,*6F
$GPGSA,A,3,01,17,28,22,,,,,,,,,5.03,3.68,3.42*01
$GPGSV,3,1,12,01,62,037,19,03,,,38,06,03,234,,07,06,195,13*47
$GPGSV,3,2,12,11,50,052,14,17,35,299,33,19,,,34,22,48,093,17*41
$GPGSV,3,3,12,28,68,304,37,30,22,225,36,42,45,159,33,50,43,152,33*70
$GPGLL,3724.27738,N,12706.25664,E,101344.00,A,A*60
$GPRMC,101345.00,A,3724.28294,N,12706.25128,E,24.245,321.29,080419,,,A*5F
$GPVTG,321.29,T,,M,24.245,N,44.902,K,A*38
$GPGGA,101345.00,3724.28294,N,12706.25128,E,1,03,5.76,44.7,M,18.8,M,,*66
$GPGSA,A,3,01,17,28,,,,,,,,,,9.47,5.76,7.51*02
$GPGSV,4,1,13,01,62,037,41,03,,,38,06,03,234,,07,06,195,14*4B
$GPGSV,4,2,13,08,19,090,,11,50,052,33,17,35,299,32,19,,,34*4A
$GPGSV,4,3,13,22,48,093,09,28,68,304,37,30,22,225,32,42,45,159,32*78
$GPGSV,4,4,13,50,43,152,32*4E
$GPGLL,3724.28294,N,12706.25128,E,101345.00,A,A*62
$GPRMC,101346.00,A,3724.28789,N,12706.24569,E,23.928,319.48,080419,,,A*5E
$GPVTG,319.48,T,,M,23.928,N,44.315,K,A*3F
$GPGGA,101346.00,3724.28789,N,12706.24569,E,1,03,5.76,45.1,M,18.8,M,,*6B
$GPGSA,A,3,01,17,28,,,,,,,,,,9.47,5.76,7.51*02
$GPGSV,4,1,13,01,62,037,41,03,,,38,06,03,234,,07,06,195,17*48
$GPGSV,4,2,13,08,19,090,,11,50,052,34,17,35,299,33,19,,,34*4C
$GPGSV,4,3,13,22,48,093,09,28,68,304,36,30,22,225,33,42,45,159,30*7A
$GPGSV,4,4,13,50,43,152,30*4C
$GPGLL,3724.28789,N,12706.24569,E,101346.00,A,A*68
$GPRMC,101347.00,A,3724.29247,N,12706.23860,E,24.704,317.76,080419,,,A*5E
$GPVTG,317.76,T,,M,24.704,N,45.752,K,A*3D
$GPGGA,101347.00,3724.29247,N,12706.23860,E,1,04,3.68,48.8,M,18.8,M,,*65
$GPGSA,A,3,01,17,28,22,,,,,,,,,5.02,3.68,3.42*00
$GPGSV,4,1,13,01,62,037,43,03,,,38,06,03,234,,07,06,195,16*4B
$GPGSV,4,2,13,08,19,090,,11,50,052,24,17,35,299,33,19,,,32*4B
$GPGSV,4,3,13,22,48,093,38,28,68,304,36,30,22,225,34,42,45,159,29*77
$GPGSV,4,4,13,50,43,152,29*44
$GPGLL,3724.29247,N,12706.23860,E,101347.00,A,A*6C
$GPRMC,101348.00,A,3724.29786,N,12706.23192,E,25.393,316.05,080419,,,A*53
$GPVTG,316.05,T,,M,25.393,N,47.027,K,A*34
$GPGGA,101348.00,3724.29786,N,12706.23192,E,1,04,3.68,51.2,M,18.8,M,,*64
$GPGSA,A,3,01,17,28,22,,,,,,,,,5.02,3.68,3.42*00
$GPGSV,4,1,14,01,62,037,43,03,,,35,06,03,234,,07,06,195,16*41
$GPGSV,4,2,14,08,19,090,27,11,50,052,25,17,35,299,32,18,,,32*48
$GPGSV,4,3,14,19,,,30,22,48,093,37,28,68,304,36,30,22,225,34*45
$GPGSV,4,4,14,42,45,159,31,50,43,152,30*73
$GPGLL,3724.29786,N,12706.23192,E,101348.00,A,A*6F
$GPRMC,101349.00,A,3724.30294,N,12706.22495,E,25.914,314.27,080419,,,A*58
$GPVTG,314.27,T,,M,25.914,N,47.993,K,A*35
$GPGGA,101349.00,3724.30294,N,12706.22495,E,1,04,3.68,53.4,M,18.8,M,,*6C
$GPGSA,A,3,01,17,28,22,,,,,,,,,5.02,3.68,3.42*00
$GPGSV,4,1,14,01,62,037,43,03,,,34,06,03,234,,07,06,195,12*44
$GPGSV,4,2,14,08,19,090,27,11,50,052,26,17,35,299,32,18,,,33*4A
$GPGSV,4,3,14,19,,,29,22,48,093,37,28,68,304,37,30,22,225,35*4D
$GPGSV,4,4,14,42,45,159,31,50,43,152,33*70
$GPGLL,3724.30294,N,12706.22495,E,101349.00,A,A*63
$GPRMC,101350.00,A,3724.30751,N,12706.21834,E,26.492,312.60,080419,,,A*5D
$GPVTG,312.60,T,,M,26.492,N,49.063,K,A*38
$GPGGA,101350.00,3724.30751,N,12706.21834,E,1,04,3.68,52.5,M,18.8,M,,*6C
$GPGSA,A,3,01,17,28,22,,,,,,,,,5.02,3.68,3.42*00
$GPGSV,4,1,14,01,62,037,43,03,,,34,06,03,234,,07,06,195,11*47
$GPGSV,4,2,14,08,19,090,26,11,50,052,25,17,35,299,32,18,,,32*49
$GPGSV,4,3,14,19,,,34,22,48,093,36,28,68,304,37,30,22,225,31*44
$GPGSV,4,4,14,42,45,159,31,50,43,152,33*70
$GPGLL,3724.30751,N,12706.21834,E,101350.00,A,A*63
$GPRMC,101351.00,A,3724.31224,N,12706.21144,E,27.376,312.56,080419,,,A*5D
$GPVTG,312.56,T,,M,27.376,N,50.700,K,A*3B
$GPGGA,101351.00,3724.31224,N,12706.21144,E,1,04,3.68,52.0,M,18.8,M,,*60
$GPGSA,A,3,01,17,28,22,,,,,,,,,5.02,3.68,3.42*00
$GPGSV,4,1,14,01,62,037,41,03,,,34,06,03,234,,07,06,195,12*46
$GPGSV,4,2,14,08,19,090,24,11,50,052,24,17,35,299,31,18,,,32*49
$GPGSV,4,3,14,19,,,31,22,48,093,36,28,68,304,37,30,22,225,32*42
$GPGSV,4,4,14,42,45,159,32,50,43,152,33*73
$GPGLL,3724.31224,N,12706.21144,E,101351.00,A,A*6A
$GPRMC,101352.00,A,3724.31725,N,12706.20415,E,27.836,311.26,080419,,,A*51
$GPVTG,311.26,T,,M,27.836,N,51.551,K,A*37
$GPGGA,101352.00,3724.31725,N,12706.20415,E,1,04,3.67,51.8,M,18.8,M,,*63
$GPGSA,A,3,01,17,28,22,,,,,,,,,5.02,3.67,3.43*0E
$GPGSV,4,1,14,01,62,037,42,03,,,37,06,03,234,,07,06,195,11*45
$GPGSV,4,2,14,08,19,090,21,11,50,052,31,17,35,299,35,18,,,31*4F
$GPGSV,4,3,14,19,,,32,22,48,093,36,28,68,304,37,30,22,224,35*47
$GPGSV,4,4,14,42,45,159,32,50,43,152,32*72
$GPGLL,3724.31725,N,12706.20415,E,101352.00,A,A*6D
$GPRMC,101353.00,A,3724.32214,N,12706.19654,E,28.072,308.96,080419,,,A*5D
$GPVTG,308.96,T,,M,28.072,N,51.990,K,A*32
$GPGGA,101353.00,3724.32214,N,12706.19654,E,1,04,3.67,51.9,M,18.8,M,,*6A
$GPGSA,A,3,01,17,28,22,,,,,,,,,5.02,3.67,3.43*0E
$GPGSV,4,1,14,01,62,037,28,03,,,39,06,03,234,,07,06,195,12*44
$GPGSV,4,2,14,08,19,090,18,11,50,052,34,17,35,299,37,18,,,26*44
$GPGSV,4,3,14,19,,,35,22,48,093,35,28,68,304,37,30,22,224,36*40
$GPGSV,4,4,14,42,45,159,31,50,43,152,31*72
$GPGLL,3724.32214,N,12706.19654,E,101353.00,A,A*65
$GPRMC,101354.00,A,3724.32656,N,12706.18842,E,28.262,305.75,080419,,,A*53
$GPVTG,305.75,T,,M,28.262,N,52.341,K,A*34
$GPGGA,101354.00,3724.32656,N,12706.18842,E,1,04,3.67,52.2,M,18.8,M,,*6F
$GPGSA,A,3,01,17,28,22,,,,,,,,,5.02,3.67,3.43*0E
$GPGSV,4,1,14,01,62,037,25,03,,,40,06,03,234,,07,06,195,*44
$GPGSV,4,2,14,08,19,090,22,11,50,052,21,17,35,299,37,18,,,23*4C
$GPGSV,4,3,14,19,,,22,22,48,093,35,28,68,304,37,30,22,224,36*46
$GPGSV,4,4,14,42,45,159,30,50,43,152,30*72
$GPGLL,3724.32656,N,12706.18842,E,101354.00,A,A*68
$GPRMC,101355.00,A,3724.33116,N,12706.18015,E,28.707,305.01,080419,,,A*5F
$GPVTG,305.01,T,,M,28.707,N,53.165,K,A*34
$GPGGA,101355.00,3724.33116,N,12706.18015,E,1,04,3.67,52.1,M,18.8,M,,*65
$GPGSA,A,3,01,17,28,22,,,,,,,,,5.02,3.67,3.43*0E
$GPGSV,4,1,13,01,62,037,23,03,,,40,06,03,234,,07,06,195,*45
$GPGSV,4,2,13,08,19,090,20,11,50,052,18,17,35,299,36,19,,,30*41
$GPGSV,4,3,13,22,48,093,31,28,68,304,36,30,22,224,33,42,45,159,29*78
$GPGSV,4,4,13,50,43,152,30*4C
$GPGLL,3724.33116,N,12706.18015,E,101355.00,A,A*61
$GPRMC,101356.00,A,3724.33561,N,12706.17159,E,29.351,304.23,080419,,,A*59
$GPVTG,304.23,T,,M,29.351,N,54.358,K,A*38
$GPGGA,101356.00,3724.33561,N,12706.17159,E,1,04,3.67,52.6,M,18.8,M,,*63
$GPGSA,A,3,01,17,28,22,,,,,,,,,5.02,3.67,3.43*0E
$GPGSV,4,1,13,01,62,037,20,03,,,40,06,03,234,,07,06,195,*46
$GPGSV,4,2,13,08,19,090,17,11,50,052,12,17,35,299,37,19,,,29*46
$GPGSV,4,3,13,22,48,093,30,28,68,304,37,30,22,224,34,42,45,159,29*7F
$GPGSV,4,4,13,50,43,152,30*4C
$GPGLL,3724.33561,N,12706.17159,E,101356.00,A,A*60
$GPRMC,101357.00,A,3724.34010,N,12706.16283,E,29.731,302.79,080419,,,A*52
$GPVTG,302.79,T,,M,29.731,N,55.062,K,A*38
$GPGGA,101357.00,3724.34010,N,12706.16283,E,1,04,3.67,52.5,M,18.8,M,,*60
$GPGSA,A,3,01,17,28,22,,,,,,,,,5.02,3.67,3.43*0E
$GPGSV,4,1,13,01,62,037,23,03,,,40,06,03,234,,07,06,195,*45
$GPGSV,4,2,13,08,19,090,11,11,50,052,09,17,35,299,36,19,,,29*4B
$GPGSV,4,3,13,22,48,093,32,28,68,304,36,30,22,224,34,42,45,159,29*7C
$GPGSV,4,4,13,50,43,152,31*4D
$GPGLL,3724.34010,N,12706.16283,E,101357.00,A,A*60
$GPRMC,101358.00,A,3724.34442,N,12706.15397,E,29.790,297.51,080419,,,A*55
$GPVTG,297.51,T,,M,29.790,N,55.171,K,A*37
$GPGGA,101358.00,3724.34442,N,12706.15397,E,1,04,3.67,52.1,M,18.8,M,,*6F
$GPGSA,A,3,01,17,28,22,,,,,,,,,5.02,3.67,3.43*0E
$GPGSV,4,1,13,01,62,037,42,03,,,38,06,03,234,,07,06,195,*4D
$GPGSV,4,2,13,08,19,090,,11,50,052,34,17,35,299,33,19,,,22*4B
$GPGSV,4,3,13,22,48,093,35,28,68,304,36,30,22,224,32,42,45,159,29*7D
$GPGSV,4,4,13,50,43,152,29*44
$GPGLL,3724.34442,N,12706.15397,E,101358.00,A,A*6B
$GPRMC,101359.00,A,3724.34640,N,12706.14393,E,30.452,296.01,080419,,,A*50
$GPVTG,296.01,T,,M,30.452,N,56.397,K,A*3F
$GPGGA,101359.00,3724.34640,N,12706.14393,E,1,04,3.67,50.9,M,18.8,M,,*61
$GPGSA,A,3,01,17,28,22,,,,,,,,,5.02,3.67,3.43*0E
$GPGSV,4,1,13,01,62,037,41,03,,,39,06,03,234,,07,06,195,*4F
$GPGSV,4,2,13,08,19,090,,11,50,052,30,17,35,299,36,19,,,24*4C
$GPGSV,4,3,13,22,48,093,37,28,68,304,35,30,22,224,29,42,45,159,28*77
$GPGSV,4,4,13,50,43,152,28*45
$GPGLL,3724.34640,N,12706.14393,E,101359.00,A,A*6F
$GPRMC,101400.00,A,3724.34965,N,12706.13400,E,31.037,297.09,080419,,,A*56
$GPVTG,297.09,T,,M,31.037,N,57.481,K,A*31
$GPGGA,101400.00,3724.34965,N,12706.13400,E,1,04,3.67,50.5,M,18.8,M,,*64
$GPGSA,A,3,01,17,28,22,,,,,,,,,5.02,3.67,3.43*0E
$GPGSV,4,1,13,01,62,037,38,03,,,39,06,03,234,,07,06,195,*41
$GPGSV,4,2,13,08,19,090,,11,50,052,21,17,35,299,37,19,,,25*4C
$GPGSV,4,3,13,22,48,093,37,28,68,304,35,30,22,224,29,42,45,159,27*78
$GPGSV,4,4,13,50,43,152,28*45
$GPGLL,3724.34965,N,12706.13400,E,101400.00,A,A*66
$GPRMC,101401.00,A,3724.35349,N,12706.12423,E,31.433,297.37,080419,,,A*5F
$GPVTG,297.37,T,,M,31.433,N,58.214,K,A*39
$GPGGA,101401.00,3724.35349,N,12706.12423,E,1,04,3.67,50.6,M,18.8,M,,*63
$GPGSA,A,3,01,17,28,22,,,,,,,,,5.02,3.67,3.43*0E
$GPGSV,4,1,13,01,62,037,28,03,,,39,06,03,234,,07,06,195,*40
$GPGSV,4,2,13,08,19,090,,11,50,052,19,17,35,299,35,19,,,25*45
$GPGSV,4,3,13,22,48,093,35,28,68,304,36,30,22,224,29,42,45,159,29*77
$GPGSV,4,4,13,50,43,152,28*45
$GPGLL,3724.35349,N,12706.12423,E,101401.00,A,A*62
$GPRMC,101402.00,A,3724.35854,N,12706.11486,E,31.641,299.06,080419,,,A*5C
$GPVTG,299.06,T,,M,31.641,N,58.600,K,A*33
$GPGGA,101402.00,3724.35854,N,12706.11486,E,1,04,3.67,51.0,M,18.8,M,,*6C
$GPGSA,A,3,01,17,28,22,,,,,,,,,5.02,3.67,3.43*0E
$GPGSV,4,1,13,01,62,037,38,03,,,39,06,03,234,,07,06,195,*41
$GPGSV,4,2,13,08,19,090,,11,50,052,17,17,35,299,38,19,,,26*45
$GPGSV,4,3,13,22,48,093,38,28,68,304,36,30,22,224,29,42,45,159,29*7A
$GPGSV,4,4,13,50,43,152,29*44
$GPGLL,3724.35854,N,12706.11486,E,101402.00,A,A*6A
$GPRMC,101403.00,A,3724.36350,N,12706.10547,E,32.056,301.72,080419,,,A*5C
$GPVTG,301.72,T,,M,32.056,N,59.368,K,A*39
$GPGGA,101403.00,3724.36350,N,12706.10547,E,1,05,2.33,51.8,M,18.8,M,,*65
$GPGSA,A,3,01,17,28,03,22,,,,,,,,3.98,2.33,3.23*0E
$GPGSV,4,1,13,01,62,037,28,03,46,130,37,06,03,234,,07,06,195,*7E
$GPGSV,4,2,13,08,19,090,,11,50,052,16,17,35,299,39,19,,,27*44
$GPGSV,4,3,13,22,48,093,37,28,68,304,36,30,22,224,36,42,45,159,30*73
$GPGSV,4,4,13,50,43,152,28*45
$GPGLL,3724.36350,N,12706.10547,E,101403.00,A,A*6A
$GPRMC,101404.00,A,3724.36892,N,12706.09652,E,31.986,306.99,080419,,,A*54
$GPVTG,306.99,T,,M,31.986,N,59.239,K,A*39
$GPGGA,101404.00,3724.36892,N,12706.09652,E,1,05,2.33,53.3,M,18.8,M,,*61
$GPGSA,A,3,01,17,28,03,22,,,,,,,,3.98,2.33,3.23*0E
$GPGSV,4,1,13,01,62,037,36,03,46,130,39,06,03,234,,07,06,195,19*77
$GPGSV,4,2,13,08,19,090,,11,50,052,,17,35,299,36,19,,,31*4B
$GPGSV,4,3,13,22,48,093,36,28,68,304,36,30,22,224,32,42,45,159,29*7E
$GPGSV,4,4,13,50,43,152,27*4A
$GPGLL,3724.36892,N,12706.09652,E,101404.00,A,A*67
$GPRMC,101405.00,A,3724.37468,N,12706.08779,E,32.792,310.06,080419,,,A*5D
$GPVTG,310.06,T,,M,32.792,N,60.732,K,A*34
$GPGGA,101405.00,3724.37468,N,12706.08779,E,1,05,2.33,53.4,M,18.8,M,,*66
$GPGSA,A,3,01,17,28,03,22,,,,,,,,3.98,2.33,3.23*0E
$GPGSV,4,1,13,01,62,037,39,03,46,130,37,06,03,234,,07,06,195,17*78
$GPGSV,4,2,13,08,19,090,,11,50,052,,17,35,299,33,19,,,32*4D
$GPGSV,4,3,13,22,48,093,33,28,68,304,36,30,22,224,32,42,45,159,30*73
$GPGSV,4,4,13,50,43,152,27*4A
$GPGLL,3724.37468,N,12706.08779,E,101405.00,A,A*67
$GPRMC,101406.00,A,3724.38066,N,12706.07931,E,32.968,313.67,080419,,,A*59
$GPVTG,313.67,T,,M,32.968,N,61.057,K,A*3E
$GPGGA,101406.00,3724.38066,N,12706.07931,E,1,05,2.33,54.0,M,18.8,M,,*6E
$GPGSA,A,3,01,17,28,03,22,,,,,,,,3.98,2.33,3.23*0E
$GPGSV,4,1,13,01,61,037,35,03,46,130,38,06,03,234,,07,06,195,14*7B
$GPGSV,4,2,13,08,19,090,,11,50,052,18,17,35,299,33,19,,,32*44
$GPGSV,4,3,13,22,48,093,34,28,68,304,36,30,22,224,29,42,45,159,32*7C
$GPGSV,4,4,13,50,43,152,27*4A
$GPGLL,3724.38066,N,12706.07931,E,101406.00,A,A*6C
$GPRMC,101407.00,A,3724.38723,N,12706.07101,E,33.210,317.33,080419,,,A*55
$GPVTG,317.33,T,,M,33.210,N,61.505,K,A*3C
$GPGGA,101407.00,3724.38723,N,12706.07101,E,1,05,2.33,55.8,M,18.8,M,,*6B
$GPGSA,A,3,01,17,28,03,22,,,,,,,,3.98,2.33,3.23*0E
$GPGSV,4,1,13,01,61,037,37,03,46,130,35,06,03,234,,07,06,195,12*72
$GPGSV,4,2,13,08,19,090,,11,50,052,21,17,35,299,28,19,,,30*46
$GPGSV,4,3,13,22,48,093,40,28,68,304,36,30,22,224,34,42,45,159,32*73
$GPGSV,4,4,13,50,43,152,27*4A
$GPGLL,3724.38723,N,12706.07101,E,101407.00,A,A*60
$GPRMC,101408.00,A,3724.39417,N,12706.06378,E,32.580,320.80,080419,,,A*51
$GPVTG,320.80,T,,M,32.580,N,60.338,K,A*36
$GPGGA,101408.00,3724.39417,N,12706.06378,E,1,05,2.33,57.6,M,18.8,M,,*60
$GPGSA,A,3,01,17,28,03,22,,,,,,,,3.98,2.33,3.23*0E
$GPGSV,3,1,12,01,61,037,35,03,46,130,35,06,03,234,,07,06,195,12*76
$GPGSV,3,2,12,08,19,090,,11,50,052,38,17,35,299,28,19,,,35*4D
$GPGSV,3,3,12,22,48,093,36,28,68,304,35,30,22,224,30,42,45,159,31*70
$GPGLL,3724.39417,N,12706.06378,E,101408.00,A,A*67
$GPRMC,101409.00,A,3724.40061,N,12706.05652,E,32.103,323.05,080419,,,A*54
$GPVTG,323.05,T,,M,32.103,N,59.455,K,A*31
$GPGGA,101409.00,3724.40061,N,12706.05652,E,1,05,2.32,57.0,M,18.8,M,,*63
$GPGSA,A,3,01,17,28,03,22,,,,,,,,3.98,2.32,3.23*0F
$GPGSV,3,1,12,01,61,037,39,03,46,130,38,06,03,234,,07,06,195,14*71
$GPGSV,3,2,12,08,19,090,,11,50,052,32,17,35,299,36,19,,,31*4C
$GPGSV,3,3,12,22,48,093,36,28,68,304,35,30,22,224,33,42,45,159,30*72
$GPGLL,3724.40061,N,12706.05652,E,101409.00,A,A*63
$GPRMC,101410.00,A,3724.40780,N,12706.05025,E,32.050,325.39,080419,,,A*5C
$GPVTG,325.39,T,,M,32.050,N,59.357,K,A*3A
$GPGGA,101410.00,3724.40780,N,12706.05025,E,1,05,2.32,57.5,M,18.8,M,,*60
$GPGSA,A,3,01,17,28,03,22,,,,,,,,3.98,2.32,3.23*0F
$GPGSV,4,1,13,01,61,037,37,03,46,130,40,06,03,234,,07,06,195,16*74
$GPGSV,4,2,13,08,19,091,,11,50,052,39,17,35,299,39,18,,,36*49
$GPGSV,4,3,13,19,,,36,22,48,093,38,28,68,304,35,30,22,224,27*4B
$GPGSV,4,4,13,42,45,159,30*42
$GPGLL,3724.40780,N,12706.05025,E,101410.00,A,A*65
$GPRMC,101411.00,A,3724.41605,N,12706.04455,E,32.877,327.56,080419,,,A*54
$GPVTG,327.56,T,,M,32.877,N,60.888,K,A*3F
$GPGGA,101411.00,3724.41605,N,12706.04455,E,1,05,2.32,58.6,M,18.8,M,,*62
$GPGSA,A,3,01,17,28,03,22,,,,,,,,3.98,2.32,3.23*0F
$GPGSV,4,1,13,01,61,037,39,03,46,130,41,06,03,234,,07,06,195,14*79
$GPGSV,4,2,13,08,19,091,,11,49,052,34,17,35,299,39,18,,,37*4D
$GPGSV,4,3,13,19,,,34,22,48,093,36,28,68,304,34,30,22,224,32*42
$GPGSV,4,4,13,42,45,159,31*43
$GPGLL,3724.41605,N,12706.04455,E,101411.00,A,A*6B
$GPRMC,101412.00,A,3724.42400,N,12706.03881,E,33.369,332.08,080419,,,A*5B
$GPVTG,332.08,T,,M,33.369,N,61.799,K,A*3B
$GPGGA,101412.00,3724.42400,N,12706.03881,E,1,05,2.32,59.2,M,18.8,M,,*62
$GPGSA,A,3,01,17,28,03,22,,,,,,,,3.98,2.32,3.23*0F
$GPGSV,3,1,12,01,61,037,39,03,46,130,39,06,03,234,,07,06,195,14*70
$GPGSV,3,2,12,08,19,091,18,11,49,052,36,17,35,299,35,18,,,36*4D
$GPGSV,3,3,12,22,48,093,36,28,68,304,35,30,22,224,28,42,45,159,33*7B
$GPGLL,3724.42400,N,12706.03881,E,101412.00,A,A*6E
$GPRMC,101413.00,A,3724.43212,N,12706.03348,E,32.793,332.41,080419,,,A*5D
$GPVTG,332.41,T,,M,32.793,N,60.733,K,A*37
$GPGGA,101413.00,3724.43212,N,12706.03348,E,1,05,2.32,59.6,M,18.8,M,,*6D
$GPGSA,A,3,01,17,28,03,22,,,,,,,,3.98,2.32,3.23*0F
$GPGSV,3,1,12,01,61,037,23,03,46,130,23,06,03,234,,07,06,195,14*70
$GPGSV,3,2,12,08,19,091,16,11,49,052,22,17,35,299,16,18,,,16*45
$GPGSV,3,3,12,22,48,093,21,28,68,304,24,30,22,224,28,42,45,159,28*77
$GPGLL,3724.43212,N,12706.03348,E,101413.00,A,A*65
$GPRMC,101414.00,A,3724.44093,N,12706.02828,E,34.677,334.34,080419,,,A*53
$GPVTG,334.34,T,,M,34.677,N,64.221,K,A*3C
$GPGGA,101414.00,3724.44093,N,12706.02828,E,1,05,2.32,60.1,M,18.8,M,,*67
$GPGSA,A,3,01,17,28,03,22,,,,,,,,3.98,2.32,3.23*0F
$GPGSV,3,1,11,01,61,037,19,03,46,130,20,06,03,234,,07,06,195,12*7F
$GPGSV,3,2,11,08,19,091,14,11,49,052,18,17,35,299,15,18,,,12*4A
$GPGSV,3,3,11,22,48,093,18,28,68,304,20,30,22,224,24*46
$GPGLL,3724.44093,N,12706.02828,E,101414.00,A,A*62
$GPRMC,101415.00,A,3724.44953,N,12706.02415,E,33.470,337.64,080419,,,A*51
$GPVTG,337.64,T,,M,33.470,N,61.987,K,A*3A
$GPGGA,101415.00,3724.44953,N,12706.02415,E,1,05,2.32,60.7,M,18.8,M,,*67
$GPGSA,A,3,01,17,28,03,22,,,,,,,,3.98,2.32,3.23*0F
$GPGSV,3,1,10,01,61,037,17,03,46,130,17,06,03,234,,07,06,195,12*74
$GPGSV,3,2,10,08,19,091,09,11,49,052,13,17,35,299,14,22,48,093,14*74
$GPGSV,3,3,10,28,68,304,13,30,22,224,20*7C
$GPGLL,3724.44953,N,12706.02415,E,101415.00,A,A*64
$GPRMC,101416.00,A,3724.46010,N,12706.02134,E,35.014,342.97,080419,,,A*56
$GPVTG,342.97,T,,M,35.014,N,64.846,K,A*3D
$GPGGA,101416.00,3724.46010,N,12706.02134,E,1,04,2.67,61.3,M,18.8,M,,*6A
$GPGSA,A,3,01,17,28,03,,,,,,,,,4.55,2.67,3.69*07
$GPGSV,3,1,11,01,61,037,39,03,46,130,14,06,03,234,,07,06,195,10*78
$GPGSV,3,2,11,08,19,091,08,11,49,052,40,17,35,299,38,18,,,36*43
$GPGSV,3,3,11,22,48,093,34,28,68,304,38,30,22,224,*47
$GPGLL,3724.46010,N,12706.02134,E,101416.00,A,A*6D
$GPRMC,101417.00,A,3724.46996,N,12706.01905,E,34.345,343.74,080419,,,A*53
$GPVTG,343.74,T,,M,34.345,N,63.606,K,A*3A
$GPGGA,101417.00,3724.46996,N,12706.01905,E,1,05,2.32,61.8,M,18.8,M,,*6F
$GPGSA,A,3,01,17,28,03,22,,,,,,,,3.98,2.32,3.23*0F
$GPGSV,3,1,11,01,61,037,37,03,46,130,35,06,03,234,,07,06,195,09*7D
$GPGSV,3,2,11,08,19,091,25,11,49,052,39,17,35,299,25,18,,,32*4A
$GPGSV,3,3,11,22,48,093,32,28,68,304,38,30,22,224,*41
$GPGLL,3724.46996,N,12706.01905,E,101417.00,A,A*62
$GPRMC,101418.00,A,3724.47891,N,12706.01588,E,33.679,344.32,080419,,,A*5A
$GPVTG,344.32,T,,M,33.679,N,62.374,K,A*33
$GPGGA,101418.00,3724.47891,N,12706.01588,E,1,05,2.32,62.2,M,18.8,M,,*67
$GPGSA,A,3,01,17,28,03,22,,,,,,,,3.98,2.32,3.23*0F
$GPGSV,3,1,11,01,61,037,12,03,46,130,35,06,03,234,,07,06,195,*73
$GPGSV,3,2,11,08,19,091,33,11,49,052,,17,35,299,42,18,,,25*40
$GPGSV,3,3,11,22,48,093,33,28,68,304,12,30,22,224,*48
$GPGLL,3724.47891,N,12706.01588,E,101418.00,A,A*63
$GPRMC,101419.00,A,3724.48829,N,12706.01230,E,34.084,344.54,080419,,,A*50
$GPVTG,344.54,T,,M,34.084,N,63.123,K,A*31
$GPGGA,101419.00,3724.48829,N,12706.01230,E,1,05,2.32,62.0,M,18.8,M,,*6C
$GPGSA,A,3,01,17,28,03,22,,,,,,,,3.98,2.32,3.23*0F
$GPGSV,3,1,11,01,61,037,39,03,46,130,26,06,03,234,,07,06,195,*78
$GPGSV,3,2,11,08,19,091,27,11,49,052,40,17,35,299,42,18,,,34*41
$GPGSV,3,3,11,22,48,093,20,28,68,304,38,30,22,224,24*44
$GPGLL,3724.48829,N,12706.01230,E,101419.00,A,A*6A
$GPRMC,101420.00,A,3724.49770,N,12706.00933,E,32.904,343.11,080419,,,A*50
$GPVTG,343.11,T,,M,32.904,N,60.938,K,A*31
$GPGGA,101420.00,3724.49770,N,12706.00933,E,1,05,2.32,61.1,M,18.8,M,,*6F
$GPGSA,A,3,01,17,28,03,22,,,,,,,,3.98,2.32,3.23*0F
$GPGSV,3,1,11,01,61,037,39,03,46,130,23,06,03,234,,07,06,195,*7D
$GPGSV,3,2,11,08,19,091,16,11,49,052,40,17,35,299,43,18,,,37*41
$GPGSV,3,3,11,22,48,093,34,28,68,304,37,30,22,224,21*4B
$GPGLL,3724.49770,N,12706.00933,E,101420.00,A,A*6B
$GPRMC,101421.00,A,3724.50718,N,12706.00545,E,34.018,343.65,080419,,,A*5B
$GPVTG,343.65,T,,M,34.018,N,63.001,K,A*30
$GPGGA,101421.00,3724.50718,N,12706.00545,E,1,05,2.32,62.2,M,18.8,M,,*65
$GPGSA,A,3,01,17,28,03,22,,,,,,,,3.98,2.32,3.23*0F
$GPGSV,3,1,11,01,61,037,38,03,46,130,35,06,03,234,,07,06,195,18*72
$GPGSV,3,2,11,08,19,091,16,11,49,052,40,17,35,299,43,18,,,37*41
$GPGSV,3,3,11,22,48,093,36,28,68,304,36,30,22,224,30*48
$GPGLL,3724.50718,N,12706.00545,E,101421.00,A,A*61
$GPRMC,101422.00,A,3724.51687,N,12706.00265,E,34.182,344.06,080419,,,A*5B
$GPVTG,344.06,T,,M,34.182,N,63.305,K,A*37
$GPGGA,101422.00,3724.51687,N,12706.00265,E,1,05,2.32,63.1,M,18.8,M,,*67
$GPGSA,A,3,01,17,28,03,22,,,,,,,,3.97,2.32,3.23*00
$GPGSV,3,1,11,01,61,037,38,03,46,130,35,06,03,234,,07,06,195,28*71
$GPGSV,3,2,11,08,19,091,18,11,49,052,40,17,35,299,43,18,,,38*40
$GPGSV,3,3,11,22,48,093,35,28,68,304,38,30,22,224,30*45
$GPGLL,3724.51687,N,12706.00265,E,101422.00,A,A*61
$GPRMC,101423.00,A,3724.52623,N,12705.99977,E,34.007,345.03,080419,,,A*54
$GPVTG,345.03,T,,M,34.007,N,62.982,K,A*3B
$GPGGA,101423.00,3724.52623,N,12705.99977,E,1,05,2.32,62.9,M,18.8,M,,*69
$GPGSA,A,3,01,17,28,03,22,,,,,,,,3.97,2.32,3.23*00
$GPGSV,3,1,11,01,61,037,38,03,46,130,35,06,03,234,,07,06,195,25*7C
$GPGSV,3,2,11,08,19,091,28,11,49,052,40,17,35,299,43,18,,,29*43
$GPGSV,3,3,11,22,48,093,36,28,68,304,38,30,22,224,33*45
$GPGLL,3724.52623,N,12705.99977,E,101423.00,A,A*66
$GPRMC,101424.00,A,3724.53495,N,12705.99684,E,33.502,345.49,080419,,,A*57
$GPVTG,345.49,T,,M,33.502,N,62.046,K,A*33
$GPGGA,101424.00,3724.53495,N,12705.99684,E,1,05,2.32,64.0,M,18.8,M,,*6C
$GPGSA,A,3,01,17,28,03,22,,,,,,,,3.97,2.32,3.23*00
$GPGSV,3,1,11,01,61,037,38,03,46,130,35,06,03,234,,07,06,195,21*78
$GPGSV,3,2,11,08,19,091,30,11,49,052,39,17,35,299,42,18,,,39*44
$GPGSV,3,3,11,22,48,093,35,28,68,304,38,30,22,224,37*42
$GPGLL,3724.53495,N,12705.99684,E,101424.00,A,A*6C
$GPRMC,101425.00,A,3724.54440,N,12705.99434,E,33.519,345.68,080419,,,A*59
$GPVTG,345.68,T,,M,33.519,N,62.078,K,A*37
$GPGGA,101425.00,3724.54440,N,12705.99434,E,1,05,2.32,64.1,M,18.8,M,,*6A
$GPGSA,A,3,01,17,28,03,22,,,,,,,,3.97,2.32,3.23*00
$GPGSV,3,1,11,01,61,037,38,03,46,130,35,06,03,234,,07,06,195,16*7C
$GPGSV,3,2,11,08,19,091,29,11,49,052,40,17,35,299,41,18,,,36*4E
$GPGSV,3,3,11,22,48,093,34,28,68,304,38,30,22,224,37*43
$GPGLL,3724.54440,N,12705.99434,E,101425.00,A,A*6B
$GPRMC,101426.00,A,3724.55380,N,12705.99191,E,33.002,345.86,080419,,,A*55
$GPVTG,345.86,T,,M,33.002,N,61.119,K,A*3D
$GPGGA,101426.00,3724.55380,N,12705.99191,E,1,05,2.32,64.5,M,18.8,M,,*6D
$GPGSA,A,3,01,17,28,03,22,,,,,,,,3.97,2.32,3.23*00
$GPGSV,3,1,11,01,61,037,38,03,46,130,35,06,03,234,,07,06,195,14*7E
$GPGSV,3,2,11,08,19,091,21,11,49,052,40,17,35,299,42,18,,,38*4B
$GPGSV,3,3,11,22,48,093,34,28,68,304,37,30,22,224,37*4C
$GPGLL,3724.55380,N,12705.99191,E,101426.00,A,A*68
$GPRMC,101427.00,A,3724.56292,N,12705.98940,E,32.253,345.57,080419,,,A*5B
$GPVTG,345.57,T,,M,32.253,N,59.733,K,A*33
$GPGGA,101427.00,3724.56292,N,12705.98940,E,1,05,2.31,64.6,M,18.8,M,,*68
$GPGSA,A,3,01,17,28,03,22,,,,,,,,3.97,2.31,3.23*03
$GPGSV,3,1,11,01,61,037,38,03,46,130,35,06,03,234,,07,06,195,12*78
$GPGSV,3,2,11,08,19,091,20,11,49,052,40,17,35,299,41,18,,,38*49
$GPGSV,3,3,11,22,48,093,34,28,68,304,37,30,22,224,36*4D
$GPGLL,3724.56292,N,12705.98940,E,101427.00,A,A*6D
$GPRMC,101428.00,A,3724.57197,N,12705.98688,E,32.204,345.53,080419,,,A*5E
$GPVTG,345.53,T,,M,32.204,N,59.642,K,A*32
$GPGGA,101428.00,3724.57197,N,12705.98688,E,1,05,2.31,64.7,M,18.8,M,,*6A
$GPGSA,A,3,01,17,28,03,22,,,,,,,,3.97,2.31,3.23*03
$GPGSV,3,1,11,01,61,037,38,03,46,130,36,06,03,234,,07,06,195,14*7D
$GPGSV,3,2,11,08,19,091,18,11,49,052,40,17,35,299,42,18,,,36*4F
$GPGSV,3,3,11,22,48,093,34,28,68,304,37,30,22,224,37*4C
$GPGLL,3724.57197,N,12705.98688,E,101428.00,A,A*6E
$GPRMC,101429.00,A,3724.58093,N,12705.98437,E,32.050,346.33,080419,,,A*55
$GPVTG,346.33,T,,M,32.050,N,59.358,K,A*3A
$GPGGA,101429.00,3724.58093,N,12705.98437,E,1,05,2.31,64.9,M,18.8,M,,*69
$GPGSA,A,3,01,17,28,03,22,,,,,,,,3.97,2.31,3.23*03
$GPGSV,3,1,11,01,61,037,38,03,46,130,35,06,03,234,,07,06,195,18*72
$GPGSV,3,2,11,08,19,091,17,11,49,052,41,17,35,299,41,18,,,36*42
$GPGSV,3,3,11,22,48,093,34,28,68,304,37,30,22,224,36*4D
$GPGLL,3724.58093,N,12705.98437,E,101429.00,A,A*63
$GPRMC,101430.00,A,3724.58974,N,12705.98201,E,31.871,347.69,080419,,,A*58
$GPVTG,347.69,T,,M,31.871,N,59.025,K,A*35
$GPGGA,101430.00,3724.58974,N,12705.98201,E,1,05,2.31,65.1,M,18.8,M,,*6B
$GPGSA,A,3,01,17,28,03,22,,,,,,,,3.97,2.31,3.23*03
$GPGSV,3,1,11,01,61,037,38,03,46,130,35,06,03,234,,07,06,195,20*79
$GPGSV,3,2,11,08,19,091,17,11,49,052,41,17,35,299,39,18,,,33*48
$GPGSV,3,3,11,22,48,093,34,28,68,304,36,30,22,224,32*48
$GPGLL,3724.58974,N,12705.98201,E,101430.00,A,A*68
$GPRMC,101431.00,A,3724.59841,N,12705.97991,E,31.594,349.32,080419,,,A*54
$GPVTG,349.32,T,,M,31.594,N,58.511,K,A*30
$GPGGA,101431.00,3724.59841,N,12705.97991,E,1,05,2.31,65.1,M,18.8,M,,*61
$GPGSA,A,3,01,17,28,03,22,,,,,,,,3.97,2.31,3.23*03
$GPGSV,3,1,11,01,61,037,39,03,47,129,36,06,03,234,,07,06,195,21*73
$GPGSV,3,2,11,08,19,091,15,11,49,052,40,17,35,299,38,18,,,34*4D
$GPGSV,3,3,11,22,48,093,30,28,68,304,36,30,22,224,34*4A
$GPGLL,3724.59841,N,12705.97991,E,101431.00,A,A*62
$GPRMC,101432.00,A,3724.60681,N,12705.97801,E,31.521,351.07,080419,,,A*56
$GPVTG,351.07,T,,M,31.521,N,58.376,K,A*36
$GPGGA,101432.00,3724.60681,N,12705.97801,E,1,05,2.31,65.1,M,18.8,M,,*62
$GPGSA,A,3,01,17,28,03,22,,,,,,,,3.97,2.31,3.23*03
$GPGSV,3,1,11,01,61,037,42,03,47,129,36,06,04,235,,07,06,195,21*79
$GPGSV,3,2,11,08,19,091,13,11,49,052,40,17,35,299,38,18,,,36*49
$GPGSV,3,3,11,22,48,093,28,28,68,304,37,30,22,224,37*41
$GPGLL,3724.60681,N,12705.97801,E,101432.00,A,A*61
$GPRMC,101433.00,A,3724.61508,N,12705.97640,E,31.678,353.29,080419,,,A*5E
$GPVTG,353.29,T,,M,31.678,N,58.668,K,A*3D
$GPGGA,101433.00,3724.61508,N,12705.97640,E,1,05,2.31,64.8,M,18.8,M,,*63
$GPGSA,A,3,01,17,28,03,22,,,,,,,,3.97,2.31,3.23*03
$GPGSV,3,1,11,01,61,037,42,03,47,129,36,06,04,235,,07,06,195,19*72
$GPGSV,3,2,11,08,19,091,11,11,49,052,41,17,35,299,34,18,,,37*47
$GPGSV,3,3,11,22,48,093,26,28,68,304,39,30,22,224,27*40
$GPGLL,3724.61508,N,12705.97640,E,101433.00,A,A*68
$GPRMC,101434.00,A,3724.62345,N,12705.97512,E,32.146,355.10,080419,,,A*54
$GPVTG,355.10,T,,M,32.146,N,59.535,K,A*32
$GPGGA,101434.00,3724.62345,N,12705.97512,E,1,05,2.31,64.5,M,18.8,M,,*61
$GPGSA,A,3,01,17,28,03,22,,,,,,,,3.97,2.31,3.23*03
$GPGSV,3,1,11,01,61,037,41,03,47,129,37,06,04,235,,07,06,195,18*71
$GPGSV,3,2,11,08,19,091,12,11,49,052,41,17,35,299,34,18,,,36*45
$GPGSV,3,3,11,22,48,093,25,28,68,304,39,30,22,224,36*43
$GPGLL,3724.62345,N,12705.97512,E,101434.00,A,A*67
$GPRMC,101435.00,A,3724.63202,N,12705.97421,E,32.280,357.07,080419,,,A*5A
$GPVTG,357.07,T,,M,32.280,N,59.783,K,A*30
$GPGGA,101435.00,3724.63202,N,12705.97421,E,1,05,2.31,64.7,M,18.8,M,,*60
$GPGSA,A,3,01,17,28,03,22,,,,,,,,3.97,2.31,3.23*03
$GPGSV,3,1,11,01,61,037,42,03,47,129,36,06,04,235,,07,06,195,20*78
$GPGSV,3,2,11,08,19,091,12,11,49,052,41,17,35,299,40,18,,,34*44
$GPGSV,3,3,11,22,48,093,26,28,68,304,37,30,22,224,33*4B
$GPGLL,3724.63202,N,12705.97421,E,101435.00,A,A*64
$GPRMC,101436.00,A,3724.64087,N,12705.97376,E,32.625,358.47,080419,,,A*54
$GPVTG,358.47,T,,M,32.625,N,60.422,K,A*32
$GPGGA,101436.00,3724.64087,N,12705.97376,E,1,05,2.31,64.8,M,18.8,M,,*61
$GPGSA,A,3,01,17,28,03,22,,,,,,,,3.97,2.31,3.23*03
$GPGSV,3,1,11,01,61,037,41,03,47,129,38,06,04,235,,07,06,195,21*74
$GPGSV,3,2,11,08,19,091,16,11,49,052,40,17,36,299,40,18,,,35*43
$GPGSV,3,3,11,22,48,093,25,28,68,304,37,30,22,224,29*43
$GPGLL,3724.64087,N,12705.97376,E,101436.00,A,A*6A
$GPRMC,101437.00,A,3724.64992,N,12705.97357,E,32.660,359.76,080419,,,A*59
$GPVTG,359.76,T,,M,32.660,N,60.486,K,A*3E
$GPGGA,101437.00,3724.64992,N,12705.97357,E,1,05,2.31,64.7,M,18.8,M,,*61
$GPGSA,A,3,01,17,28,03,22,,,,,,,,3.97,2.31,3.23*03
$GPGSV,3,1,11,01,61,037,41,03,47,129,35,06,04,235,,07,06,195,23*7B
$GPGSV,3,2,11,08,19,091,21,11,49,052,40,17,36,299,38,18,,,36*4B
$GPGSV,3,3,11,22,48,092,25,28,68,304,38,30,22,224,33*46
$GPGLL,3724.64992,N,12705.97357,E,101437.00,A,A*65
$GPRMC,101438.00,A,3724.65886,N,12705.97364,E,32.522,1.39,080419,,,A*53
$GPVTG,1.39,T,,M,32.522,N,60.231,K,A*34
$GPGGA,101438.00,3724.65886,N,12705.97364,E,1,05,2.31,64.9,M,18.8,M,,*65
$GPGSA,A,3,01,17,28,03,22,,,,,,,,3.97,2.31,3.23*03
$GPGSV,3,1,11,01,61,037,41,03,47,129,35,06,04,235,,07,06,195,23*7B
$GPGSV,3,2,11,08,19,091,22,11,49,052,41,17,36,299,38,18,,,38*47
$GPGSV,3,3,11,22,48,092,32,28,68,304,38,30,22,224,26*44
$GPGLL,3724.65886,N,12705.97364,E,101438.00,A,A*6F
$GPRMC,101439.00,A,3724.66778,N,12705.97413,E,32.173,3.50,080419,,,A*55
$GPVTG,3.50,T,,M,32.173,N,59.585,K,A*3B
$GPGGA,101439.00,3724.66778,N,12705.97413,E,1,05,2.31,64.9,M,18.8,M,,*6E
$GPGSA,A,3,01,17,28,03,22,,,,,,,,3.97,2.31,3.23*03
$GPGSV,3,1,11,01,61,037,41,03,47,129,34,06,04,235,,07,06,195,25*7C
$GPGSV,3,2,11,08,19,091,25,11,49,052,42,17,36,299,42,18,,,37*41
$GPGSV,3,3,11,22,48,092,35,28,68,304,39,30,22,224,32*47
$GPGLL,3724.66778,N,12705.97413,E,101439.00,A,A*64
$GPRMC,101440.00,A,3724.67658,N,12705.97532,E,31.611,6.67,080419,,,A*5A
$GPVTG,6.67,T,,M,31.611,N,58.543,K,A*31
$GPGGA,101440.00,3724.67658,N,12705.97532,E,1,05,2.31,64.6,M,18.8,M,,*6F
$GPGSA,A,3,01,17,28,03,22,,,,,,,,3.97,2.31,3.23*03
$GPGSV,3,1,11,01,61,037,41,03,47,129,37,06,04,235,,07,06,195,24*7E
$GPGSV,3,2,11,08,19,091,31,11,49,052,41,17,36,299,36,18,,,37*44
$GPGSV,3,3,11,22,48,092,32,28,68,304,39,30,22,224,27*44
$GPGLL,3724.67658,N,12705.97532,E,101440.00,A,A*6A
$GPRMC,101441.00,A,3724.68519,N,12705.97682,E,31.078,9.29,080419,,,A*56
$GPVTG,9.29,T,,M,31.078,N,57.557,K,A*37
$GPGGA,101441.00,3724.68519,N,12705.97682,E,1,05,2.31,64.8,M,18.8,M,,*61
$GPGSA,A,3,01,17,28,03,22,,,,,,,,3.97,2.31,3.23*03
$GPGSV,3,1,11,01,61,037,42,03,47,129,34,06,04,235,,07,06,195,23*79
$GPGSV,3,2,11,08,19,091,28,11,49,052,41,17,36,299,37,18,,,36*4C
$GPGSV,3,3,11,22,48,092,38,28,68,304,38,30,22,224,29*41
$GPGLL,3724.68519,N,12705.97682,E,101441.00,A,A*6A
$GPRMC,101442.00,A,3724.69352,N,12705.97879,E,30.779,11.13,080419,,,A*60
$GPVTG,11.13,T,,M,30.779,N,57.002,K,A*05
$GPGGA,101442.00,3724.69352,N,12705.97879,E,1,05,2.31,64.4,M,18.8,M,,*6C
$GPGSA,A,3,01,17,28,03,22,,,,,,,,3.97,2.31,3.23*03
$GPGSV,3,1,11,01,61,037,43,03,47,129,34,06,04,235,,07,06,195,26*7D
$GPGSV,3,2,11,08,19,091,29,11,49,052,43,17,36,299,24,18,,,35*4E
$GPGSV,3,3,11,22,48,092,37,28,68,304,37,30,22,224,27*4F
$GPGLL,3724.69352,N,12705.97879,E,101442.00,A,A*6B
$GPRMC,101443.00,A,3724.70172,N,12705.98089,E,30.697,12.05,080419,,,A*64
$GPVTG,12.05,T,,M,30.697,N,56.850,K,A*0E
$GPGGA,101443.00,3724.70172,N,12705.98089,E,1,05,2.31,64.0,M,18.8,M,,*69
$GPGSA,A,3,01,17,28,03,22,,,,,,,,3.97,2.31,3.23*03
$GPGSV,3,1,11,01,61,037,42,03,47,129,35,06,04,235,,07,06,195,27*7C
$GPGSV,3,2,11,08,19,091,29,11,49,052,42,17,36,299,27,18,,,35*4C
$GPGSV,3,3,11,22,48,092,36,28,68,304,37,30,22,224,24*4D
$GPGLL,3724.70172,N,12705.98089,E,101443.00,A,A*6A
$GPRMC,101444.00,A,3724.70999,N,12705.98304,E,30.755,11.89,080419,,,A*60
$GPVTG,11.89,T,,M,30.755,N,56.959,K,A*0E
$GPGGA,101444.00,3724.70999,N,12705.98304,E,1,05,2.31,63.6,M,18.8,M,,*64
$GPGSA,A,3,01,17,28,03,22,,,,,,,,3.97,2.31,3.23*03
$GPGSV,3,1,11,01,61,037,42,03,47,129,35,06,04,235,,07,06,195,28*73
$GPGSV,3,2,11,08,19,091,30,11,49,052,41,17,36,299,31,18,,,35*40
$GPGSV,3,3,11,22,48,092,35,28,68,304,37,30,22,224,22*48
$GPGLL,3724.70999,N,12705.98304,E,101444.00,A,A*66
$GPRMC,101445.00,A,3724.71836,N,12705.98529,E,31.228,12.18,080419,,,A*68
$GPVTG,12.18,T,,M,31.228,N,57.835,K,A*01
$GPGGA,101445.00,3724.71836,N,12705.98529,E,1,05,2.31,63.0,M,18.8,M,,*6F
$GPGSA,A,3,01,17,28,03,22,,,,,,,,3.97,2.31,3.23*03
$GPGSV,3,1,11,01,61,037,42,03,47,129,35,06,04,235,,07,06,195,28*73
$GPGSV,3,2,11,08,19,091,34,11,49,052,41,17,36,299,35,18,,,36*43
$GPGSV,3,3,11,22,48,092,35,28,68,304,37,30,22,224,20*4A
$GPGLL,3724.71836,N,12705.98529,E,101445.00,A,A*6B
$GPRMC,101446.00,A,3724.72689,N,12705.98780,E,31.677,13.21,080419,,,A*66
$GPVTG,13.21,T,,M,31.677,N,58.665,K,A*00
$GPGGA,101446.00,3724.72689,N,12705.98780,E,1,05,2.30,62.1,M,18.8,M,,*65
$GPGSA,A,3,01,17,28,03,22,,,,,,,,3.97,2.30,3.23*02
$GPGSV,3,1,11,01,61,037,42,03,47,129,36,06,04,235,,07,06,195,28*70
$GPGSV,3,2,11,08,19,091,33,11,49,052,42,17,36,299,35,18,,,37*46
$GPGSV,3,3,11,22,48,092,35,28,68,304,38,30,22,224,*47
$GPGLL,3724.72689,N,12705.98780,E,101446.00,A,A*60
$GPRMC,101447.00,A,3724.73551,N,12705.99056,E,32.278,14.24,080419,,,A*67
$GPVTG,14.24,T,,M,32.278,N,59.778,K,A*06
$GPGGA,101447.00,3724.73551,N,12705.99056,E,1,05,2.30,61.1,M,18.8,M,,*6D
$GPGSA,A,3,01,17,28,03,22,,,,,,,,3.97,2.30,3.23*02
$GPGSV,3,1,11,01,61,037,42,03,47,129,37,06,04,235,,07,06,195,28*71
$GPGSV,3,2,11,08,19,091,29,11,49,052,41,17,36,299,35,18,,,38*41
$GPGSV,3,3,11,22,48,092,37,28,68,304,38,30,22,224,*45
$GPGLL,3724.73551,N,12705.99056,E,101447.00,A,A*6B
$GPRMC,101448.00,A,3724.74427,N,12705.99355,E,32.899,15.29,080419,,,A*66
$GPVTG,15.29,T,,M,32.899,N,60.929,K,A*0F
$GPGGA,101448.00,3724.74427,N,12705.99355,E,1,05,2.30,60.3,M,18.8,M,,*66
$GPGSA,A,3,01,17,28,03,22,,,,,,,,3.97,2.30,3.23*02
$GPGSV,3,1,11,01,61,037,42,03,47,129,37,06,04,235,,07,06,195,29*70
$GPGSV,3,2,11,08,19,091,31,11,49,052,41,17,36,299,30,18,,,39*4C
$GPGSV,3,3,11,22,48,092,38,28,68,304,38,30,22,224,32*4B
$GPGLL,3724.74427,N,12705.99355,E,101448.00,A,A*63
$GPRMC,101449.00,A,3724.75314,N,12705.99686,E,33.352,16.83,080419,,,A*64
$GPVTG,16.83,T,,M,33.352,N,61.768,K,A*0B
$GPGGA,101449.00,3724.75314,N,12705.99686,E,1,05,2.30,59.6,M,18.8,M,,*65
$GPGSA,A,3,01,17,28,03,22,,,,,,,,3.97,2.30,3.23*02
$GPGSV,3,1,11,01,61,037,42,03,47,129,33,06,04,235,,07,06,195,28*75
$GPGSV,3,2,11,08,19,091,25,11,49,052,39,17,36,299,28,18,,,39*4F
$GPGSV,3,3,11,22,48,092,38,28,68,304,38,30,22,224,31*48
$GPGLL,3724.75314,N,12705.99686,E,101449.00,A,A*6F
$GPRMC,101450.00,A,3724.76194,N,12706.00051,E,33.214,18.60,080419,,,A*6A
$GPVTG,18.60,T,,M,33.214,N,61.513,K,A*05
$GPGGA,101450.00,3724.76194,N,12706.00051,E,1,05,2.30,59.0,M,18.8,M,,*6D
$GPGSA,A,3,01,17,28,03,22,,,,,,,,3.97,2.30,3.23*02
$GPGSV,3,1,11,01,61,037,41,03,47,129,33,06,04,235,,07,06,195,32*7D
$GPGSV,3,2,11,08,19,091,25,11,49,052,38,17,36,299,33,18,,,36*4B
$GPGSV,3,3,11,22,48,092,38,28,68,304,37,30,22,224,31*47
$GPGLL,3724.76194,N,12706.00051,E,101450.00,A,A*61
$GPRMC,101451.00,A,3724.77090,N,12706.00449,E,33.936,19.40,080419,,,A*6A
$GPVTG,19.40,T,,M,33.936,N,62.849,K,A*0C
$GPGGA,101451.00,3724.77090,N,12706.00449,E,1,07,1.59,57.5,M,18.8,M,,*60
$GPGSA,A,3,01,17,28,03,18,22,11,,,,,,3.11,1.59,2.68*07
$GPGSV,3,1,11,01,61,037,41,03,47,129,36,06,04,235,,07,06,195,28*73
$GPGSV,3,2,11,08,19,091,30,11,49,052,38,17,36,299,34,18,33,049,36*75
$GPGSV,3,3,11,22,48,092,37,28,68,304,36,30,22,224,30*48
$GPGLL,3724.77090,N,12706.00449,E,101451.00,A,A*69
$GPRMC,101452.00,A,3724.77994,N,12706.00866,E,34.648,20.67,080419,,,A*6B
$GPVTG,20.67,T,,M,34.648,N,64.167,K,A*01
$GPGGA,101452.00,3724.77994,N,12706.00866,E,1,07,1.59,56.6,M,18.8,M,,*6D
$GPGSA,A,3,01,17,28,03,18,22,11,,,,,,3.11,1.59,2.68*07
$GPGSV,3,1,11,01,61,037,39,03,47,129,36,06,04,235,,07,06,195,29*7D
$GPGSV,3,2,11,08,19,091,29,11,49,052,38,17,36,299,23,18,33,049,39*74
$GPGSV,3,3,11,22,48,092,37,28,68,304,35,30,22,224,28*42
$GPGLL,3724.77994,N,12706.00866,E,101452.00,A,A*66
$GPRMC,101453.00,A,3724.78910,N,12706.01300,E,35.173,20.91,080419,,,A*64
$GPVTG,20.91,T,,M,35.173,N,65.140,K,A*02
$GPGGA,101453.00,3724.78910,N,12706.01300,E,1,07,1.09,56.3,M,18.8,M,,*65
$GPGSA,A,3,01,17,28,03,18,22,11,,,,,,2.42,1.09,2.16*0C
$GPGSV,3,1,11,01,61,037,40,03,47,129,38,06,04,235,,07,06,195,32*77
$GPGSV,3,2,11,08,19,091,22,11,49,052,39,17,36,299,21,18,33,049,39*7C
$GPGSV,3,3,11,22,48,092,37,28,68,304,34,30,22,224,18*40
$GPGLL,3724.78910,N,12706.01300,E,101453.00,A,A*6E
$GPRMC,101454.00,A,3724.79849,N,12706.01755,E,35.876,21.23,080419,,,A*6F
$GPVTG,21.23,T,,M,35.876,N,66.443,K,A*03
$GPGGA,101454.00,3724.79849,N,12706.01755,E,1,07,1.09,55.8,M,18.8,M,,*62
$GPGSA,A,3,01,17,28,03,18,22,11,,,,,,2.42,1.09,2.16*0C
$GPGSV,3,1,11,01,61,037,40,03,47,129,38,06,04,235,,07,06,195,31*74
$GPGSV,3,2,11,08,19,091,24,11,49,052,38,17,36,299,18,18,33,049,37*7F
$GPGSV,3,3,11,22,48,092,39,28,68,304,34,30,22,224,27*42
$GPGLL,3724.79849,N,12706.01755,E,101454.00,A,A*61
$GPRMC,101455.00,A,3724.80803,N,12706.02205,E,36.344,20.82,080419,,,A*66
$GPVTG,20.82,T,,M,36.344,N,67.309,K,A*08
$GPGGA,101455.00,3724.80803,N,12706.02205,E,1,07,1.09,55.1,M,18.8,M,,*61
$GPGSA,A,3,01,17,28,03,18,22,11,,,,,,2.42,1.09,2.16*0C
$GPGSV,3,1,11,01,61,037,41,03,47,129,37,06,04,235,,07,06,195,30*7B
$GPGSV,3,2,11,08,19,091,25,11,49,052,39,17,36,299,16,18,33,049,36*70
$GPGSV,3,3,11,22,48,092,39,28,68,304,34,30,22,224,21*44
$GPGLL,3724.80803,N,12706.02205,E,101455.00,A,A*6B
$GPRMC,101456.00,A,3724.81782,N,12706.02658,E,36.773,20.87,080419,,,A*6B
$GPVTG,20.87,T,,M,36.773,N,68.103,K,A*0A
$GPGGA,101456.00,3724.81782,N,12706.02658,E,1,07,1.09,54.3,M,18.8,M,,*6A
$GPGSA,A,3,01,17,28,03,18,22,11,,,,,,2.42,1.09,2.16*0C
$GPGSV,3,1,11,01,61,037,40,03,47,129,39,06,04,235,,07,06,195,29*7C
$GPGSV,3,2,11,08,19,091,24,11,49,052,38,17,36,299,12,18,33,049,36*74
$GPGSV,3,3,11,22,48,092,37,28,68,304,34,30,22,224,18*40
$GPGLL,3724.81782,N,12706.02658,E,101456.00,A,A*63
$GPRMC,101457.00,A,3724.82770,N,12706.03109,E,37.238,20.65,080419,,,A*61
$GPVTG,20.65,T,,M,37.238,N,68.964,K,A*04
$GPGGA,101457.00,3724.82770,N,12706.03109,E,1,07,1.09,53.8,M,18.8,M,,*6B
$GPGSA,A,3,01,17,28,03,18,22,11,,,,,,2.42,1.09,2.16*0C
$GPGSV,3,1,11,01,61,037,41,03,47,129,39,06,04,235,,07,06,195,29*7D
$GPGSV,3,2,11,08,19,091,26,11,49,052,39,17,36,299,28,18,33,049,36*7E
$GPGSV,3,3,11,22,48,092,39,28,68,304,34,30,22,224,*47
$GPGLL,3724.82770,N,12706.03109,E,101457.00,A,A*6E
$GPRMC,101458.00,A,3724.83758,N,12706.03567,E,37.619,20.92,080419,,,A*66
$GPVTG,20.92,T,,M,37.619,N,69.670,K,A*00
$GPGGA,101458.00,3724.83758,N,12706.03567,E,1,07,1.09,53.5,M,18.8,M,,*6E
$GPGSA,A,3,01,17,28,03,18,22,11,,,,,,2.42,1.09,2.16*0C
$GPGSV,3,1,11,01,61,037,41,03,47,129,38,06,04,235,,07,06,195,29*7C
$GPGSV,3,2,11,08,19,091,25,11,49,052,39,17,36,299,33,18,33,049,36*77
$GPGSV,3,3,11,22,48,092,39,28,68,304,35,30,22,224,*46
$GPGLL,3724.83758,N,12706.03567,E,101458.00,A,A*66
$GPRMC,101459.00,A,3724.84749,N,12706.04031,E,37.915,21.15,080419,,,A*6C
$GPVTG,21.15,T,,M,37.915,N,70.219,K,A*0E
$GPGGA,101459.00,3724.84749,N,12706.04031,E,1,07,1.09,53.4,M,18.8,M,,*68
$GPGSA,A,3,01,17,28,03,18,22,11,,,,,,2.42,1.09,2.16*0C
$GPGSV,3,1,11,01,61,037,41,03,47,129,38,06,04,235,,07,05,195,30*77
$GPGSV,3,2,11,08,19,091,24,11,49,052,39,17,36,299,33,18,33,049,36*76
$GPGSV,3,3,11,22,48,092,41,28,68,304,35,30,22,224,*49
$GPGLL,3724.84749,N,12706.04031,E,101459.00,A,A*61
$GPRMC,101500.00,A,3724.85739,N,12706.04504,E,38.090,21.47,080419,,,A*68
$GPVTG,21.47,T,,M,38.090,N,70.542,K,A*0B
$GPGGA,101500.00,3724.85739,N,12706.04504,E,1,07,1.09,53.4,M,18.8,M,,*60
$GPGSA,A,3,01,17,28,03,18,22,11,,,,,,2.42,1.09,2.16*0C
$GPGSV,3,1,11,01,61,037,40,03,47,129,38,06,04,235,,07,05,195,31*77
$GPGSV,3,2,11,08,19,091,22,11,49,052,39,17,36,299,32,18,33,049,38*7F
$GPGSV,3,3,11,22,48,092,40,28,68,304,36,30,22,224,*4B
$GPGLL,3724.85739,N,12706.04504,E,101500.00,A,A*69
$GPRMC,101501.00,A,3724.86732,N,12706.04979,E,38.183,21.58,080419,,,A*6A
$GPVTG,21.58,T,,M,38.183,N,70.714,K,A*07
$GPGGA,101501.00,3724.86732,N,12706.04979,E,1,07,1.09,53.4,M,18.8,M,,*6F
$GPGSA,A,3,01,17,28,03,18,22,11,,,,,,2.42,1.09,2.16*0C
$GPGSV,3,1,11,01,61,037,41,03,47,129,38,06,04,235,,07,05,195,30*77
$GPGSV,3,2,11,08,19,091,22,11,49,052,39,17,36,299,31,18,33,049,38*7C
$GPGSV,3,3,11,22,48,092,40,28,68,304,36,30,22,224,*4B
$GPGLL,3724.86732,N,12706.04979,E,101501.00,A,A*66
$GPRMC,101502.00,A,3724.87721,N,12706.05460,E,38.282,21.48,080419,,,A*6D
$GPVTG,21.48,T,,M,38.282,N,70.898,K,A*0F
$GPGGA,101502.00,3724.87721,N,12706.05460,E,1,07,1.09,53.6,M,18.8,M,,*69
$GPGSA,A,3,01,17,28,03,18,22,11,,,,,,2.42,1.09,2.16*0C
$GPGSV,3,1,11,01,61,037,41,03,47,129,35,06,04,235,,07,05,195,28*73
$GPGSV,3,2,11,08,19,091,21,11,49,052,39,17,36,299,31,18,33,049,38*7F
$GPGSV,3,3,11,22,48,092,41,28,68,304,36,30,22,224,*4A
$GPGLL,3724.87721,N,12706.05460,E,101502.00,A,A*62
$GPRMC,101503.00,A,3724.88712,N,12706.05946,E,38.373,21.50,080419,,,A*6C
$GPVTG,21.50,T,,M,38.373,N,71.067,K,A*00
$GPGGA,101503.00,3724.88712,N,12706.05946,E,1,07,1.09,53.7,M,18.8,M,,*6F
$GPGSA,A,3,01,17,28,03,18,22,11,,,,,,2.42,1.09,2.16*0C
$GPGSV,3,1,11,01,61,037,40,03,47,129,37,06,04,235,,07,05,195,27*7F
$GPGSV,3,2,11,08,19,091,20,11,49,052,39,17,36,300,31,18,33,049,38*7F
$GPGSV,3,3,11,22,48,092,41,28,68,304,36,30,22,224,*4A
$GPGLL,3724.88712,N,12706.05946,E,101503.00,A,A*65
$GPRMC,101504.00,A,3724.89705,N,12706.06430,E,38.422,21.64,080419,,,A*67
$GPVTG,21.64,T,,M,38.422,N,71.158,K,A*09
$GPGGA,101504.00,3724.89705,N,12706.06430,E,1,07,1.09,53.8,M,18.8,M,,*6F
$GPGSA,A,3,01,17,28,03,18,22,11,,,,,,2.42,1.09,2.16*0C
$GPGSV,3,1,11,01,61,037,40,03,47,129,37,06,04,235,,07,05,195,28*70
$GPGSV,3,2,11,08,19,091,20,11,49,052,40,17,36,300,31,18,33,049,38*71
$GPGSV,3,3,11,22,48,092,41,28,68,304,36,30,22,224,*4A
$GPGLL,3724.89705,N,12706.06430,E,101504.00,A,A*6A
$GPRMC,101505.00,A,3724.90698,N,12706.06924,E,38.606,21.88,080419,,,A*65
$GPVTG,21.88,T,,M,38.606,N,71.499,K,A*07
$GPGGA,101505.00,3724.90698,N,12706.06924,E,1,07,1.09,54.0,M,18.8,M,,*64
$GPGSA,A,3,01,17,28,03,18,22,11,,,,,,2.42,1.09,2.16*0C
$GPGSV,3,1,11,01,61,037,41,03,47,129,35,06,04,235,,07,05,195,27*7C
$GPGSV,3,2,11,08,19,091,21,11,49,052,39,17,36,300,30,18,33,049,38*7F
$GPGSV,3,3,11,22,48,092,41,28,68,304,36,30,22,224,29*41
$GPGLL,3724.90698,N,12706.06924,E,101505.00,A,A*6E
$GPRMC,101506.00,A,3724.91695,N,12706.07402,E,38.382,21.05,080419,,,A*6E
$GPVTG,21.05,T,,M,38.382,N,71.083,K,A*04
$GPGGA,101506.00,3724.91695,N,12706.07402,E,1,07,1.09,54.1,M,18.8,M,,*62
$GPGSA,A,3,01,17,28,03,18,22,11,,,,,,2.42,1.09,2.16*0C
$GPGSV,3,1,11,01,61,037,41,03,47,129,36,06,04,235,,07,05,195,27*7F
$GPGSV,3,2,11,08,19,091,22,11,49,052,39,17,36,300,29,18,33,049,36*7A
$GPGSV,3,3,11,22,48,092,40,28,69,303,36,30,22,224,28*47
$GPGLL,3724.91695,N,12706.07402,E,101506.00,A,A*69
$GPRMC,101507.00,A,3724.92696,N,12706.07858,E,38.238,19.80,080419,,,A*6A
$GPVTG,19.80,T,,M,38.238,N,70.816,K,A*07
$GPGGA,101507.00,3724.92696,N,12706.07858,E,1,07,1.09,54.0,M,18.8,M,,*61
$GPGSA,A,3,01,17,28,03,18,22,11,,,,,,2.42,1.09,2.16*0C
$GPGSV,3,1,11,01,61,037,41,03,47,129,38,06,04,235,,07,05,195,33*74
$GPGSV,3,2,11,08,19,091,19,11,49,052,39,17,36,300,31,18,33,049,34*79
$GPGSV,3,3,11,22,48,092,38,28,69,303,36,30,22,224,25*45
$GPGLL,3724.92696,N,12706.07858,E,101507.00,A,A*6B
$GPRMC,101508.00,A,3724.93695,N,12706.08296,E,37.933,18.95,080419,,,A*6A
$GPVTG,18.95,T,,M,37.933,N,70.252,K,A*07
$GPGGA,101508.00,3724.93695,N,12706.08296,E,1,07,1.09,54.2,M,18.8,M,,*69
$GPGSA,A,3,01,17,28,03,18,22,11,,,,,,2.42,1.09,2.16*0C
$GPGSV,3,1,11,01,61,037,41,03,47,129,38,06,04,235,,07,05,195,32*75
$GPGSV,3,2,11,08,19,091,20,11,49,052,39,17,36,300,32,18,33,049,34*70
$GPGSV,3,3,11,22,48,092,38,28,69,303,37,30,22,224,25*44
$GPGLL,3724.93695,N,12706.08296,E,101508.00,A,A*61
$GPRMC,101509.00,A,3724.94690,N,12706.08716,E,37.558,18.34,080419,,,A*6E
$GPVTG,18.34,T,,M,37.558,N,69.557,K,A*07
$GPGGA,101509.00,3724.94690,N,12706.08716,E,1,07,1.09,54.2,M,18.8,M,,*67
$GPGSA,A,3,01,17,28,03,18,22,11,,,,,,2.42,1.09,2.16*0C
$GPGSV,3,1,11,01,61,037,41,03,47,129,37,06,04,235,,07,05,195,28*71
$GPGSV,3,2,11,08,19,091,22,11,49,052,38,17,36,300,27,18,33,049,34*77
$GPGSV,3,3,11,22,48,092,37,28,69,303,37,30,22,224,27*49
$GPGLL,3724.94690,N,12706.08716,E,101509.00,A,A*6F
$GPRMC,101510.00,A,3724.95678,N,12706.09119,E,37.052,17.36,080419,,,A*6B
$GPVTG,17.36,T,,M,37.052,N,68.620,K,A*07
$GPGGA,101510.00,3724.95678,N,12706.09119,E,1,07,1.09,54.2,M,18.8,M,,*60
$GPGSA,A,3,01,17,28,03,18,22,11,,,,,,2.42,1.09,2.16*0C
$GPGSV,3,1,11,01,61,037,41,03,47,129,34,06,04,235,,07,05,195,28*72
$GPGSV,3,2,11,08,19,091,30,11,49,052,39,17,36,300,26,18,33,049,35*75
$GPGSV,3,3,11,22,48,092,37,28,69,303,38,30,22,224,29*48
$GPGLL,3724.95678,N,12706.09119,E,101510.00,A,A*68
$GPRMC,101511.00,A,3724.96665,N,12706.09492,E,36.749,16.23,080419,,,A*6A
$GPVTG,16.23,T,,M,36.749,N,68.059,K,A*06
$GPGGA,101511.00,3724.96665,N,12706.09492,E,1,07,1.09,53.9,M,18.8,M,,*64
$GPGSA,A,3,01,17,28,03,18,22,11,,,,,,2.42,1.09,2.16*0C
$GPGSV,3,1,11,01,61,037,41,03,47,129,33,06,04,235,,07,05,195,33*7F
$GPGSV,3,2,11,08,19,091,31,11,49,052,40,17,36,300,32,18,33,049,36*7C
$GPGSV,3,3,11,22,48,092,37,28,69,303,38,30,22,224,29*48
$GPGLL,3724.96665,N,12706.09492,E,101511.00,A,A*60
$GPRMC,101512.00,A,3724.97644,N,12706.09854,E,36.528,15.78,080419,,,A*65
$GPVTG,15.78,T,,M,36.528,N,67.650,K,A*0E
$GPGGA,101512.00,3724.97644,N,12706.09854,E,1,07,1.09,53.7,M,18.8,M,,*6D
$GPGSA,A,3,01,17,28,03,18,22,11,,,,,,2.42,1.09,2.16*0C
$GPGSV,3,1,11,01,61,037,41,03,47,129,33,06,04,235,,07,05,195,27*7A
$GPGSV,3,2,11,08,19,091,30,11,49,052,40,17,36,300,31,18,33,049,37*7F
$GPGSV,3,3,11,22,48,092,38,28,69,303,37,30,22,224,30*40
$GPGLL,3724.97644,N,12706.09854,E,101512.00,A,A*67
$GPRMC,101513.00,A,3724.98621,N,12706.10212,E,36.530,15.91,080419,,,A*66
$GPVTG,15.91,T,,M,36.530,N,67.654,K,A*04
$GPGGA,101513.00,3724.98621,N,12706.10212,E,1,07,1.09,53.3,M,18.8,M,,*64
$GPGSA,A,3,01,17,28,03,18,22,11,,,,,,2.42,1.09,2.16*0C
$GPGSV,3,1,11,01,61,037,41,03,47,129,34,06,04,235,,07,05,195,27*7D
$GPGSV,3,2,11,08,19,091,32,11,49,052,40,17,36,300,31,18,33,049,38*72
$GPGSV,3,3,11,22,48,092,37,28,69,303,37,30,22,224,29*47
$GPGLL,3724.98621,N,12706.10212,E,101513.00,A,A*6A
$GPRMC,101514.00,A,3724.99604,N,12706.10566,E,36.706,15.85,080419,,,A*61
$GPVTG,15.85,T,,M,36.706,N,67.979,K,A*06
$GPGGA,101514.00,3724.99604,N,12706.10566,E,1,07,1.09,52.7,M,18.8,M,,*64
$GPGSA,A,3,01,17,28,03,18,22,11,,,,,,2.42,1.09,2.16*0C
$GPGSV,3,1,11,01,61,037,41,03,47,129,34,06,04,235,,07,05,195,26*7C
$GPGSV,3,2,11,08,19,091,32,11,49,052,41,17,36,300,26,18,33,049,38*75
$GPGSV,3,3,11,22,48,092,37,28,69,303,37,30,22,224,30*4F
$GPGLL,3724.99604,N,12706.10566,E,101514.00,A,A*6F
$GPRMC,101515.00,A,3725.00591,N,12706.10913,E,37.002,15.51,080419,,,A*6B
$GPVTG,15.51,T,,M,37.002,N,68.528,K,A*0A
$GPGGA,101515.00,3725.00591,N,12706.10913,E,1,07,1.09,52.2,M,18.8,M,,*60
$GPGSA,A,3,01,17,28,03,18,22,11,,,,,,2.42,1.09,2.16*0C
$GPGSV,3,1,11,01,61,037,41,03,47,129,34,06,04,235,,07,05,195,25*7F
$GPGSV,3,2,11,08,19,091,32,11,49,052,40,17,36,300,32,18,33,049,39*70
$GPGSV,3,3,11,22,48,092,37,28,69,303,37,30,22,224,31*4E
$GPGLL,3725.00591,N,12706.10913,E,101515.00,A,A*6E
$GPRMC,101516.00,A,3725.01585,N,12706.11279,E,37.264,15.70,080419,,,A*6B
$GPVTG,15.70,T,,M,37.264,N,69.013,K,A*07
$GPGGA,101516.00,3725.01585,N,12706.11279,E,1,07,1.09,51.7,M,18.8,M,,*67
$GPGSA,A,3,01,17,28,03,18,22,11,,,,,,2.42,1.09,2.16*0C
$GPGSV,3,1,11,01,61,037,41,03,47,129,31,06,04,235,,07,05,195,27*78
$GPGSV,3,2,11,08,19,091,29,11,49,052,40,17,36,300,35,18,33,049,38*7C
$GPGSV,3,3,11,22,48,092,38,28,69,303,38,30,22,224,30*4F
$GPGLL,3725.01585,N,12706.11279,E,101516.00,A,A*6F
$GPRMC,101517.00,A,3725.02586,N,12706.11647,E,37.440,15.81,080419,,,A*6D
$GPVTG,15.81,T,,M,37.440,N,69.339,K,A*02
$GPGGA,101517.00,3725.02586,N,12706.11647,E,1,07,1.09,51.2,M,18.8,M,,*6A
$GPGSA,A,3,01,17,28,03,18,22,11,,,,,,2.42,1.09,2.16*0C
$GPGSV,3,1,11,01,61,037,41,03,47,129,30,06,04,235,,07,05,195,28*76
$GPGSV,3,2,11,08,19,091,32,11,49,052,40,17,36,300,32,18,33,049,38*71
$GPGSV,3,3,11,22,48,092,38,28,69,303,38,30,22,224,30*4F
$GPGLL,3725.02586,N,12706.11647,E,101517.00,A,A*67
$GPRMC,101518.00,A,3725.03591,N,12706.12011,E,37.661,15.93,080419,,,A*61
$GPVTG,15.93,T,,M,37.661,N,69.748,K,A*02
$GPGGA,101518.00,3725.03591,N,12706.12011,E,1,07,1.09,50.9,M,18.8,M,,*6E
$GPGSA,A,3,01,17,28,03,18,22,11,,,,,,2.42,1.09,2.16*0C
$GPGSV,3,1,11,01,61,037,40,03,47,129,34,06,04,235,,07,05,195,28*73
$GPGSV,3,2,11,08,19,091,27,11,49,052,40,17,36,300,32,18,33,049,37*7A
$GPGSV,3,3,11,22,48,092,38,28,69,303,37,30,22,224,31*41
$GPGLL,3725.03591,N,12706.12011,E,101518.00,A,A*69
$GPRMC,101519.00,A,3725.04597,N,12706.12373,E,37.576,15.75,080419,,,A*6B
$GPVTG,15.75,T,,M,37.576,N,69.590,K,A*08
$GPGGA,101519.00,3725.04597,N,12706.12373,E,1,07,1.09,50.8,M,18.8,M,,*68
$GPGSA,A,3,01,17,28,03,18,22,11,,,,,,2.42,1.09,2.16*0C
$GPGSV,3,1,11,01,61,037,41,03,47,129,30,06,04,235,,07,05,195,29*77
$GPGSV,3,2,11,08,19,091,28,11,49,052,41,17,36,300,32,18,33,049,37*74
$GPGSV,3,3,11,22,48,092,36,28,69,303,37,30,22,224,34*4A
$GPGLL,3725.04597,N,12706.12373,E,101519.00,A,A*6E
$GPRMC,101520.00,A,3725.05598,N,12706.12735,E,37.508,15.63,080419,,,A*67
$GPVTG,15.63,T,,M,37.508,N,69.465,K,A*0D
$GPGGA,101520.00,3725.05598,N,12706.12735,E,1,07,1.09,50.9,M,18.8,M,,*6B
$GPGSA,A,3,01,17,28,03,18,22,11,,,,,,2.42,1.09,2.16*0C
$GPGSV,3,1,11,01,61,037,41,03,47,129,34,06,04,235,,07,05,195,30*7B
$GPGSV,3,2,11,08,19,091,33,11,49,052,41,17,36,300,33,18,33,049,37*7F
$GPGSV,3,3,11,22,48,092,38,28,69,303,37,30,22,224,29*48
$GPGLL,3725.05598,N,12706.12735,E,101520.00,A,A*6C
$GPRMC,101521.00,A,3725.06599,N,12706.13086,E,37.402,15.27,080419,,,A*61
$GPVTG,15.27,T,,M,37.402,N,69.268,K,A*0D
$GPGGA,101521.00,3725.06599,N,12706.13086,E,1,08,1.06,50.8,M,18.8,M,,*67
$GPGSA,A,3,07,01,17,28,03,18,22,11,,,,,1.94,1.06,1.62*0C
$GPGSV,3,1,11,01,61,037,40,03,47,129,35,06,04,235,,07,05,195,30*7B
$GPGSV,3,2,11,08,19,091,32,11,49,052,41,17,36,300,33,18,33,049,37*7E
$GPGSV,3,3,11,22,48,092,37,28,69,303,37,30,22,224,32*4D
$GPGLL,3725.06599,N,12706.13086,E,101521.00,A,A*61
$GPRMC,101522.00,A,3725.07598,N,12706.13425,E,37.306,15.10,080419,,,A*68
$GPVTG,15.10,T,,M,37.306,N,69.090,K,A*0F
$GPGGA,101522.00,3725.07598,N,12706.13425,E,1,08,1.06,50.8,M,18.8,M,,*69
$GPGSA,A,3,07,01,17,28,03,18,22,11,,,,,1.94,1.06,1.62*0C
$GPGSV,3,1,11,01,61,037,40,03,47,129,31,06,04,235,,07,05,195,30*7F
$GPGSV,3,2,11,08,19,091,32,11,49,052,42,17,36,300,36,18,33,049,37*78
$GPGSV,3,3,11,22,48,092,38,28,69,303,36,30,22,224,31*40
$GPGLL,3725.07598,N,12706.13425,E,101522.00,A,A*6F
$GPRMC,101523.00,A,3725.08596,N,12706.13754,E,37.263,14.37,080419,,,A*6B
$GPVTG,14.37,T,,M,37.263,N,69.011,K,A*00
$GPGGA,101523.00,3725.08596,N,12706.13754,E,1,08,1.06,50.8,M,18.8,M,,*6C
$GPGSA,A,3,07,01,17,28,03,18,22,11,,,,,1.94,1.06,1.62*0C
$GPGSV,3,1,11,01,61,037,39,03,47,129,34,06,04,235,,07,05,195,30*74
$GPGSV,3,2,11,08,19,091,31,11,49,052,42,17,36,300,34,18,33,049,37*79
$GPGSV,3,3,11,22,48,092,36,28,69,303,38,30,22,224,31*40
$GPGLL,3725.08596,N,12706.13754,E,101523.00,A,A*6A
$GPRMC,101524.00,A,3725.09599,N,12706.14043,E,37.075,12.21,080419,,,A*60
$GPVTG,12.21,T,,M,37.075,N,68.663,K,A*06
$GPGGA,101524.00,3725.09599,N,12706.14043,E,1,08,1.44,50.7,M,18.8,M,,*6A
$GPGSA,A,3,07,01,17,28,03,18,22,11,,,,,2.23,1.44,1.71*07
$GPGSV,3,1,12,01,61,037,40,03,47,129,37,06,04,235,,07,05,195,30*7A
$GPGSV,3,2,12,08,19,091,26,11,49,052,43,17,36,300,30,18,33,049,38*76
$GPGSV,3,3,12,19,,,32,22,48,092,37,28,69,303,38,30,22,224,23*48
$GPGLL,3725.09599,N,12706.14043,E,101524.00,A,A*65
$GPRMC,101525.00,A,3725.10608,N,12706.14288,E,37.039,9.96,080419,,,A*59
$GPVTG,9.96,T,,M,37.039,N,68.596,K,A*31
$GPGGA,101525.00,3725.10608,N,12706.14288,E,1,08,1.06,50.9,M,18.8,M,,*65
$GPGSA,A,3,07,01,17,28,03,18,22,11,,,,,1.94,1.06,1.62*0C
$GPGSV,3,1,12,01,61,037,40,03,47,129,37,06,04,235,,07,05,195,30*7A
$GPGSV,3,2,12,08,19,091,31,11,49,052,44,17,36,300,37,18,33,049,35*7D
$GPGSV,3,3,12,19,,,35,22,48,092,35,28,69,303,37,30,22,224,25*44
$GPGLL,3725.10608,N,12706.14288,E,101525.00,A,A*62
$GPRMC,101526.00,A,3725.11619,N,12706.14481,E,36.989,8.00,080419,,,A*59
$GPVTG,8.00,T,,M,36.989,N,68.504,K,A*37
$GPGGA,101526.00,3725.11619,N,12706.14481,E,1,08,1.06,50.7,M,18.8,M,,*66
$GPGSA,A,3,07,01,17,28,03,18,22,11,,,,,1.94,1.06,1.62*0C
$GPGSV,3,1,12,01,61,037,41,03,47,129,33,06,04,235,,07,05,195,22*7C
$GPGSV,3,2,12,08,19,091,30,11,49,052,44,17,36,300,39,18,33,049,34*73
$GPGSV,3,3,12,19,,,25,22,48,092,35,28,69,303,38,30,22,224,30*4E
$GPGLL,3725.11619,N,12706.14481,E,101526.00,A,A*6F
$GPRMC,101527.00,A,3725.12644,N,12706.14595,E,36.954,5.87,080419,,,A*55
$GPVTG,5.87,T,,M,36.954,N,68.439,K,A*3A
$GPGGA,101527.00,3725.12644,N,12706.14595,E,1,08,1.06,49.8,M,18.8,M,,*6F
$GPGSA,A,3,07,01,17,28,03,18,22,11,,,,,1.94,1.06,1.62*0C
$GPGSV,3,1,12,01,61,037,43,03,47,129,33,06,04,235,,07,05,195,22*7E
$GPGSV,3,2,12,08,19,091,25,11,49,052,41,17,36,300,39,18,33,049,35*73
$GPGSV,3,3,12,19,,,32,22,48,092,35,28,69,303,38,30,22,224,30*48
$GPGLL,3725.12644,N,12706.14595,E,101527.00,A,A*61
$GPRMC,101528.00,A,3725.13660,N,12706.14703,E,36.872,3.37,080419,,,A*58
$GPVTG,3.37,T,,M,36.872,N,68.287,K,A*31
$GPGGA,101528.00,3725.13660,N,12706.14703,E,1,08,1.06,50.0,M,18.8,M,,*6A
$GPGSA,A,3,07,01,17,28,03,18,22,11,,,,,1.94,1.06,1.62*0C
$GPGSV,3,1,12,01,61,037,41,03,47,129,35,06,04,235,,07,05,195,24*7C
$GPGSV,3,2,12,08,19,091,24,11,49,052,42,17,36,300,39,18,33,049,36*72
$GPGSV,3,3,12,19,,,25,22,48,092,31,28,69,303,38,30,22,224,29*42
$GPGLL,3725.13660,N,12706.14703,E,101528.00,A,A*64
$GPRMC,101529.00,A,3725.14680,N,12706.14741,E,36.784,1.27,080419,,,A*53
$GPVTG,1.27,T,,M,36.784,N,68.123,K,A*39
$GPGGA,101529.00,3725.14680,N,12706.14741,E,1,08,1.06,49.7,M,18.8,M,,*6B
$GPGSA,A,3,07,01,17,28,03,18,22,11,,,,,1.94,1.06,1.62*0C
$GPGSV,3,1,12,01,61,037,40,03,47,129,32,06,04,235,,07,05,195,22*7C
$GPGSV,3,2,12,08,19,091,25,11,49,052,42,17,36,300,37,18,33,049,37*7C
$GPGSV,3,3,12,19,,,22,22,48,092,31,28,69,303,38,30,22,224,22*4E
$GPGLL,3725.14680,N,12706.14741,E,101529.00,A,A*6A
$GPRMC,101530.00,A,3725.15699,N,12706.14730,E,36.718,359.42,080419,,,A*5C
$GPVTG,359.42,T,,M,36.718,N,68.001,K,A*30
$GPGGA,101530.00,3725.15699,N,12706.14730,E,1,08,1.06,49.5,M,18.8,M,,*6E
$GPGSA,A,3,07,01,17,28,03,18,22,11,,,,,1.94,1.06,1.62*0C
$GPGSV,3,1,12,01,61,037,36,03,47,129,31,06,04,235,,07,05,195,20*7C
$GPGSV,3,2,12,08,19,091,25,11,49,053,40,17,36,300,37,18,33,049,36*7E
$GPGSV,3,3,12,19,,,19,22,48,092,32,28,69,303,38,30,22,224,32*44
$GPGLL,3725.15699,N,12706.14730,E,101530.00,A,A*6D
$GPRMC,101531.00,A,3725.16710,N,12706.14699,E,36.653,357.66,080419,,,A*5A
$GPVTG,357.66,T,,M,36.653,N,67.881,K,A*39
$GPGGA,101531.00,3725.16710,N,12706.14699,E,1,08,1.06,50.0,M,18.8,M,,*63
$GPGSA,A,3,07,01,17,28,03,18,22,11,,,,,1.94,1.06,1.62*0C
$GPGSV,3,1,12,01,61,037,38,03,47,129,33,06,04,235,,07,05,195,19*7A
$GPGSV,3,2,12,08,19,091,27,11,49,053,40,17,36,300,39,18,33,049,36*72
$GPGSV,3,3,12,19,,,15,22,48,092,27,28,69,303,38,30,22,224,30*4E
$GPGLL,3725.16710,N,12706.14699,E,101531.00,A,A*6D
$GPRMC,101532.00,A,3725.17722,N,12706.14613,E,36.566,355.42,080419,,,A*5A
$GPVTG,355.42,T,,M,36.566,N,67.721,K,A*3D
$GPGGA,101532.00,3725.17722,N,12706.14613,E,1,08,1.06,50.2,M,18.8,M,,*60
$GPGSA,A,3,07,01,17,28,03,18,22,11,,,,,1.94,1.06,1.62*0C
$GPGSV,3,1,12,01,61,037,40,03,47,129,35,06,04,235,,07,05,195,19*73
$GPGSV,3,2,12,08,19,091,26,11,49,053,40,17,36,300,36,18,33,049,36*7C
$GPGSV,3,3,12,19,,,17,22,48,092,27,28,69,303,38,30,22,224,30*4C
$GPGLL,3725.17722,N,12706.14613,E,101532.00,A,A*6C
$GPRMC,101533.00,A,3725.18726,N,12706.14468,E,36.455,352.65,080419,,,A*5D
$GPVTG,352.65,T,,M,36.455,N,67.515,K,A*3B
$GPGGA,101533.00,3725.18726,N,12706.14468,E,1,08,1.06,50.2,M,18.8,M,,*64
$GPGSA,A,3,07,01,17,28,03,18,22,11,,,,,1.94,1.06,1.62*0C
$GPGSV,3,1,12,01,61,037,40,03,47,129,36,06,04,235,,07,05,195,19*70
$GPGSV,3,2,12,08,19,091,26,11,49,053,40,17,36,300,37,18,33,049,35*7E
$GPGSV,3,3,12,19,,,30,22,48,092,28,28,69,303,39,30,22,224,29*4F
$GPGLL,3725.18726,N,12706.14468,E,101533.00,A,A*68
$GPRMC,101534.00,A,3725.19710,N,12706.14273,E,35.781,350.00,080419,,,A*5A
$GPVTG,350.00,T,,M,35.781,N,66.267,K,A*30
$GPGGA,101534.00,3725.19710,N,12706.14273,E,1,08,1.06,50.3,M,18.8,M,,*6A
$GPGSA,A,3,07,01,17,28,03,18,22,11,,,,,1.93,1.06,1.62*0B
$GPGSV,3,1,12,01,61,037,38,03,47,129,36,06,04,235,,07,05,195,17*71
$GPGSV,3,2,12,08,19,091,32,11,49,053,39,17,36,300,40,18,33,049,34*74
$GPGSV,3,3,12,19,,,34,22,48,092,34,28,69,303,39,30,22,224,34*4A
$GPGLL,3725.19710,N,12706.14273,E,101534.00,A,A*67
$GPRMC,101535.00,A,3725.20668,N,12706.14038,E,34.974,348.24,080419,,,A*58
$GPVTG,348.24,T,,M,34.974,N,64.772,K,A*39
$GPGGA,101535.00,3725.20668,N,12706.14038,E,1,08,1.06,50.2,M,18.8,M,,*63
$GPGSA,A,3,07,01,17,28,03,18,22,11,,,,,1.93,1.06,1.62*0B
$GPGSV,3,1,12,01,61,037,38,03,47,129,36,06,04,235,,07,05,195,15*73
